Date,Time,Location,Sub-location,Source,Notes,Longitude,Latitude,Postal
2021-06-01,1000h - 1230h,JIC Inspection Services (53 Pioneer Road),,https://www.todayonline.com/singapore/2-community-clubs-and-2-hotels-among-places-visited-covid-19-cases-while-infectious-moh,Added/ Updated on 2021-06-04,103.657832233969,1.31133149338762,628505
2021-06-01,1100h - 1230h,VICOM Inspection Centre (511 Bukit Batok Street 2),,https://www.todayonline.com/singapore/2-community-clubs-and-2-hotels-among-places-visited-covid-19-cases-while-infectious-moh,Added/ Updated on 2021-06-04,103.755832339467,1.34175978313366,659545
2021-06-01,1955h - 2030h,Seletar Mall (33 Sengkang West Avenue),NTUC FairPrice,https://mothership.sg/2021/06/june-4-covid-19-evening-update/,Added/ Updated on 2021-06-05,103.876156956828,1.3913688093851,797653
2021-05-30,0940h - 1630h,NTUC Foodfare (476D Upper Serangoon View),,https://www.todayonline.com/singapore/resorts-world-sentosa-casino-supermarket-chua-chu-kang-among-places-visited-covid-19-cases,Added/ Updated on 2021-06-01,103.903623796196,1.37791506138101,537476
2021-05-30,1100h - 2200h,Hougang Green Shopping Mall (21 Hougang Street 51),Pizza Hut,https://www.todayonline.com/singapore/plaza-singapura-and-seletar-mall-among-places-visited-covid-19-cases-while-infectious,Added/ Updated on 2021-06-02,103.887847089168,1.37931783471773,538719
2021-05-30,1125h - 1200h,Ang Mo Supermarket (642 Hougang Avenue 8),,https://www.todayonline.com/singapore/2-community-clubs-and-2-hotels-among-places-visited-covid-19-cases-while-infectious-moh,Added/ Updated on 2021-06-04,103.879948293051,1.37169878879802,530642
2021-05-30,1200h - 1300h,Bugis Street (3 New Bugis Street),,https://www.channelnewsasia.com/news/singapore/fairprice-yishun-mrt-yuhua-village-market-covid-19-locations-moh-14934416,Added/ Updated on 2021-06-03,103.854935164999,1.30056609522079,188867
2021-05-30,1800h - 1900h,Hong Yang Health Products & Foot Reflexology Centre (38 Beo Crescent),,https://www.channelnewsasia.com/news/singapore/fairprice-yishun-mrt-yuhua-village-market-covid-19-locations-moh-14934416,Added/ Updated on 2021-06-03,103.827290023383,1.28855393184563,160038
2021-05-30,2005h - 0005h,Marina Bay Sands Casino (10 Bayfront Avenue),,https://www.channelnewsasia.com/news/singapore/fairprice-yishun-mrt-yuhua-village-market-covid-19-locations-moh-14934416,Added/ Updated on 2021-06-03,103.858562162091,1.28257452719678,018956
2021-05-29,0110h - 0530h,Marina Bay Sands Casino (10 Bayfront Avenue),,https://www.todayonline.com/singapore/plaza-singapura-and-seletar-mall-among-places-visited-covid-19-cases-while-infectious,Added/ Updated on 2021-06-02,103.858562162091,1.28257452719678,018956
2021-05-29,0900h - 1300h,NTUC Foodfare (308 Anchorvale Road),,https://www.todayonline.com/singapore/2-community-clubs-and-2-hotels-among-places-visited-covid-19-cases-while-infectious-moh,Added/ Updated on 2021-06-04,103.886445107411,1.38925397515391,540308
2021-05-29,1020h - 1100h,Seletar Mall (33 Sengkang West Avenue),,https://www.channelnewsasia.com/news/singapore/fairprice-yishun-mrt-yuhua-village-market-covid-19-locations-moh-14934416,Added/ Updated on 2021-06-03,103.876156956828,1.3913688093851,797653
2021-05-29,1255h - 2225h,NTUC Foodfare (476D Upper Serangoon View),,https://www.todayonline.com/singapore/resorts-world-sentosa-casino-supermarket-chua-chu-kang-among-places-visited-covid-19-cases,Added/ Updated on 2021-06-01,103.903623796196,1.37791506138101,537476
2021-05-29,1315h - 1500h,Chien Chi Tow Healthcare (78 Redhill Lane),,https://www.todayonline.com/singapore/plaza-singapura-and-seletar-mall-among-places-visited-covid-19-cases-while-infectious,Added/ Updated on 2021-06-02,103.818486786844,1.28843088346846,150078
2021-05-29,1555h - 1645h,Peninsula Plaza Singapore (111 North Bridge Road),,https://www.channelnewsasia.com/news/singapore/fairprice-yishun-mrt-yuhua-village-market-covid-19-locations-moh-14934416,Added/ Updated on 2021-06-03,103.85080450702,1.29232248414936,NIL
2021-05-29,1815h - 1915h,Thong Sheng Motors Trading (7 Pioneer Road North),,https://www.todayonline.com/singapore/2-community-clubs-and-2-hotels-among-places-visited-covid-19-cases-while-infectious-moh,Added/ Updated on 2021-06-04,103.695427890578,1.32483634845564,628459
2021-05-29,1820h - 2000h,VivoCity (1 HarbourFront Walk),FairPrice Xtra,https://www.channelnewsasia.com/news/singapore/fairprice-yishun-mrt-yuhua-village-market-covid-19-locations-moh-14934416,Added/ Updated on 2021-06-03,103.82238251183,1.26427727331345,NIL
2021-05-29,1840h - 1950h,ESR BizPark@Chai Chee (750A Chai Chee Road),Decathlon,https://www.todayonline.com/singapore/plaza-singapura-and-seletar-mall-among-places-visited-covid-19-cases-while-infectious,Added/ Updated on 2021-06-02,103.922124606113,1.32297820248267,469001
2021-05-29,2000h - 2035h,Prime Supermarket (763 Jurong West Street 75),,https://www.todayonline.com/singapore/2-community-clubs-and-2-hotels-among-places-visited-covid-19-cases-while-infectious-moh,Added/ Updated on 2021-06-04,103.698292005963,1.34872644269897,640763
2021-05-29,2030h - 2055h,Plaza Singapura (68 Orchard Road),Cold Storage,https://www.todayonline.com/singapore/plaza-singapura-and-seletar-mall-among-places-visited-covid-19-cases-while-infectious,Added/ Updated on 2021-06-02,103.845067272666,1.30082071769235,238839
2021-05-29,2030h - 2115h,Plaza Singapura (68 Orchard Road),,https://www.todayonline.com/singapore/plaza-singapura-and-seletar-mall-among-places-visited-covid-19-cases-while-infectious,Added/ Updated on 2021-06-02,103.845067272666,1.30082071769235,238839
2021-05-28,0800h - 1800h,Orchard Hotel Singapore (442 Orchard Road),,https://www.todayonline.com/singapore/2-community-clubs-and-2-hotels-among-places-visited-covid-19-cases-while-infectious-moh,Added/ Updated on 2021-06-04,103.828197283057,1.30762511521725,NIL
2021-05-28,0900h - 2100h,NTUC Foodfare (308 Anchorvale Road),,https://www.todayonline.com/singapore/2-community-clubs-and-2-hotels-among-places-visited-covid-19-cases-while-infectious-moh,Added/ Updated on 2021-06-04,103.886445107411,1.38925397515391,540308
2021-05-28,1010h - 1155h,Carole Unisex Salon (620 Hougang Avenue 8),,https://www.channelnewsasia.com/news/singapore/fairprice-yishun-mrt-yuhua-village-market-covid-19-locations-moh-14934416,Added/ Updated on 2021-06-03,103.883968140531,1.3701440065551,530620
2021-05-28,1100h - 2200h,Hougang Green Shopping Mall (21 Hougang Street 51),Pizza Hut,https://www.todayonline.com/singapore/plaza-singapura-and-seletar-mall-among-places-visited-covid-19-cases-while-infectious,Added/ Updated on 2021-06-02,103.887847089168,1.37931783471773,538719
2021-05-28,1200h - 1900h,Atatzcutz Singapore (348 Bedok Road),,https://www.todayonline.com/singapore/2-community-clubs-and-2-hotels-among-places-visited-covid-19-cases-while-infectious-moh,"Added/ Updated on 2021-06-04, Date is till 31 May 2021",103.948260304303,1.33143623119911,469560
2021-05-28,1300h - 1340h,Masjid Jamek Queenstown (946 Margaret Drive),,https://www.channelnewsasia.com/news/singapore/fairprice-yishun-mrt-yuhua-village-market-covid-19-locations-moh-14934416,Added/ Updated on 2021-06-03,103.815415725873,1.29301045552152,149309
2021-05-28,1615h - 1650h,Sheng Shiong Supermarket (455 Sengkang West Avenue),,https://www.channelnewsasia.com/news/singapore/fairprice-yishun-mrt-yuhua-village-market-covid-19-locations-moh-14934416,Added/ Updated on 2021-06-03,103.871190376558,1.39183688254074,790455
2021-05-28,1930h - 0000h,NTUC Foodfare (308 Anchorvale Road),,https://www.todayonline.com/singapore/2-community-clubs-and-2-hotels-among-places-visited-covid-19-cases-while-infectious-moh,Added/ Updated on 2021-06-04,103.886445107411,1.38925397515391,540308
2021-05-28,1955h - 2055h,Seletar Mall (33 Sengkang West Avenue),NTUC FairPrice,https://www.channelnewsasia.com/news/singapore/fairprice-yishun-mrt-yuhua-village-market-covid-19-locations-moh-14934416,Added/ Updated on 2021-06-03,103.876156956828,1.3913688093851,797653
2021-05-28,1955h - 2105h,The Seletar Mall (33 Sengkang West Avenue),,https://www.todayonline.com/singapore/plaza-singapura-and-seletar-mall-among-places-visited-covid-19-cases-while-infectious,Added/ Updated on 2021-06-02,103.876156956828,1.3913688093851,797653
2021-05-27,0000h - 0730h,NTUC Foodfare (308 Anchorvale Road),,https://www.todayonline.com/singapore/2-community-clubs-and-2-hotels-among-places-visited-covid-19-cases-while-infectious-moh,Added/ Updated on 2021-06-04,103.886445107411,1.38925397515391,540308
2021-05-27,0000h - 2359h,Tuas Amenity Centre (71 Pioneer Road),,https://www.channelnewsasia.com/news/singapore/fairprice-yishun-mrt-yuhua-village-market-covid-19-locations-moh-14934416,"Added/ Updated on 2021-06-03, Date is till 31 May 2021",103.652208660421,1.31720416812204,639591
2021-05-27,0000h -2359h,Tuas Amenity Centre Carpark Booth (71 Pioneer Road),,https://www.todayonline.com/singapore/plaza-singapura-and-seletar-mall-among-places-visited-covid-19-cases-while-infectious,"Added/ Updated on 2021-06-02, Date is from 27 May to 31 May",103.652208660421,1.31720416812204,639591
2021-05-27,0600h - 1900h,Food Hub (455 Sengkang West Avenue),,https://www.channelnewsasia.com/news/singapore/beauty-world-decathlon-lab-covid-19-places-locations-may-29-14911060,Added/ Updated on 2021-05-30,103.871190376558,1.39183688254074,790455
2021-05-27,0750h - 0820h ,Sheng Shiong Supermarket (417 Fernvale Link),,https://www.channelnewsasia.com/news/singapore/fairprice-yishun-mrt-yuhua-village-market-covid-19-locations-moh-14934416,Added/ Updated on 2021-06-03,103.879874611419,1.39158622983505,790417
2021-05-27,0905h - 1030h,Bukit Merah Community Centre (4000 Jalan Bukit Merah),,https://www.channelnewsasia.com/news/singapore/beauty-world-decathlon-lab-covid-19-places-locations-may-29-14911060,Added/ Updated on 2021-05-30,103.815828547684,1.28525427322707,159465
2021-05-27,0915h - 1400h,LeVel 33 (8 Marina Boulevard),,https://www.channelnewsasia.com/news/singapore/beauty-world-decathlon-lab-covid-19-places-locations-may-29-14911060,Added/ Updated on 2021-05-30,103.854188393989,1.27998145046295,018981
2021-05-27,1100h - 2230h,Chop Joo Hiong Eating House (237 Serangoon Avenue 3),,https://www.channelnewsasia.com/news/singapore/beauty-world-decathlon-lab-covid-19-places-locations-may-29-14911060,Added/ Updated on 2021-05-30,103.87013457465,1.35381198342473,550237
2021-05-27,1125h - 2035h,Tiong Bahru Plaza (298 Tiong Bahru Road),328 Katong Laksa,https://www.channelnewsasia.com/news/singapore/fairprice-yishun-mrt-yuhua-village-market-covid-19-locations-moh-14934416,Added/ Updated on 2021-06-03,103.828004844701,1.2863085351796,168730
2021-05-27,1240h - 1345h,NTUC FairPrice (50 Havelock Road),,https://www.todayonline.com/singapore/2-community-clubs-and-2-hotels-among-places-visited-covid-19-cases-while-infectious-moh,Added/ Updated on 2021-06-04,103.826802915076,1.2897647546758,160050
2021-05-27,1400h - 2200h,Atatzcut Singapore (348 Bedok Road),,https://www.todayonline.com/singapore/2-community-clubs-and-2-hotels-among-places-visited-covid-19-cases-while-infectious-moh,Added/ Updated on 2021-06-04,103.948260304303,1.33143623119911,469560
2021-05-27,1605h - 1805h,Health Management Centre (809 French Road),,https://www.todayonline.com/singapore/resorts-world-sentosa-casino-supermarket-chua-chu-kang-among-places-visited-covid-19-cases,Added/ Updated on 2021-06-01,103.862059784174,1.3083939667367,200809
2021-05-27,1630h - 1700h,Yuhua Village Market and Food Centre (254 Jurong East Street 24),,https://www.channelnewsasia.com/news/singapore/fairprice-yishun-mrt-yuhua-village-market-covid-19-locations-moh-14934416,Added/ Updated on 2021-06-03,103.737851045986,1.34351625707382,600254
2021-05-27,1700h - 1730h,Sheng Shiong Supermarket (200 Woodlands Industrial Park E7),,https://www.channelnewsasia.com/news/singapore/fairprice-yishun-mrt-yuhua-village-market-covid-19-locations-moh-14934416,Added/ Updated on 2021-06-03,103.797050379065,1.45089565555643,757177
2021-05-27,1725h - 1825h,GP Motoring (282 Macpherson Road),,https://www.todayonline.com/singapore/plaza-singapura-and-seletar-mall-among-places-visited-covid-19-cases-while-infectious,Added/ Updated on 2021-06-02,103.877130417609,1.33039834337195,348607
2021-05-27,1755h - 2030h,Lucky Plaza (304 Orchard Road),,https://www.todayonline.com/singapore/2-community-clubs-and-2-hotels-among-places-visited-covid-19-cases-while-infectious-moh,Added/ Updated on 2021-06-04,103.834005158524,1.3044637897474,NIL
2021-05-27,2230h - 2300h,Atatzcutz Singapore (348 Bedok Road),,https://www.todayonline.com/singapore/plaza-singapura-and-seletar-mall-among-places-visited-covid-19-cases-while-infectious,Added/ Updated on 2021-06-02,103.948260304303,1.33143623119911,469560
2021-05-26,0900h - 1700h,Sri Murugan Trading Pte Ltd (308 Anchorvale Road),,https://www.todayonline.com/singapore/chinatown-point-plq-mall-among-places-visited-covid-19-cases-while-infectious,Added/ Updated on 2021-05-29,103.886445107411,1.38925397515391,540308
2021-05-26,0905h - 1200h,McDonald's (293 Yishun Street 22),,https://www.channelnewsasia.com/news/singapore/beauty-world-decathlon-lab-covid-19-places-locations-may-29-14911060,Added/ Updated on 2021-05-30,103.837858420722,1.43591598491658,760293
2021-05-26,1130h - 2100h,Tiong Bahru Plaza (298 Tiong Bahru Road),328 Katong Laksa,https://www.channelnewsasia.com/news/singapore/fairprice-yishun-mrt-yuhua-village-market-covid-19-locations-moh-14934416,Added/ Updated on 2021-06-03,103.828004844701,1.2863085351796,168730
2021-05-26,1320h - 1530h,NTUC FairPrice (301 Yishun Avenue 2),,https://www.todayonline.com/singapore/2-community-clubs-and-2-hotels-among-places-visited-covid-19-cases-while-infectious-moh,Added/ Updated on 2021-06-04,103.835058273602,1.42951728655036,769093
2021-05-26,1355h - 1700h,VivoCity (1 HarbourFront Walk),,https://www.channelnewsasia.com/news/singapore/beauty-world-decathlon-lab-covid-19-places-locations-may-29-14911060,Added/ Updated on 2021-05-30,103.82238251183,1.26427727331345,NIL
2021-05-26,1400h - 1430h,New Trendy Salon LLP (84 Redhill Lane),,https://www.todayonline.com/singapore/plaza-singapura-and-seletar-mall-among-places-visited-covid-19-cases-while-infectious,Added/ Updated on 2021-06-02,103.818851050947,1.28708575034922,NIL
2021-05-26,1430h - 1500h,One Commonwealth (1 Commonwealth Lane),Passion Bike,https://www.channelnewsasia.com/news/singapore/beauty-world-decathlon-lab-covid-19-places-locations-may-29-14911060,Added/ Updated on 2021-05-30,103.796927634921,1.30430366397836,149544
2021-05-26,1630h - 1700h,Yuhua Village Market and Food Centre (254 Jurong East Street 24),,https://www.channelnewsasia.com/news/singapore/fairprice-yishun-mrt-yuhua-village-market-covid-19-locations-moh-14934416,Added/ Updated on 2021-06-03,103.737851045986,1.34351625707382,600254
2021-05-26,1710h - 1740h,Giant (256 Bangkit Road),,https://www.channelnewsasia.com/news/singapore/beauty-world-decathlon-lab-covid-19-places-locations-may-29-14911060,Added/ Updated on 2021-05-30,103.772937487128,1.37904775583142,670256
2021-05-26,1850h - 2025h,Decathlon - Singapore Lab (230 Stadium Boulevard),,https://www.channelnewsasia.com/news/singapore/beauty-world-decathlon-lab-covid-19-places-locations-may-29-14911060,Added/ Updated on 2021-05-30,103.882367769241,1.30426016123523,397799
2021-05-26,2115h - 2220h,People Park's Centre (101 Upper Cross Street),,https://www.channelnewsasia.com/news/singapore/beauty-world-decathlon-lab-covid-19-places-locations-may-29-14911060,Added/ Updated on 2021-05-30,103.843963952339,1.28584018867746,NIL
2021-05-25,0600h - 1900h,Food Hub (455 Sengkang West Avenue),,https://www.channelnewsasia.com/news/singapore/beauty-world-decathlon-lab-covid-19-places-locations-may-29-14911060,Added/ Updated on 2021-05-30,103.871190376558,1.39183688254074,790455
2021-05-25,0920h - 1000h,Sheng Shiong Supermarket (108 McNair Road),,https://www.channelnewsasia.com/news/singapore/beauty-world-decathlon-lab-covid-19-places-locations-may-29-14911060,Added/ Updated on 2021-05-30,103.859382719506,1.3216190383169,321108
2021-05-25,1230h - 1430h,Beauty World Centre (144 Upper Bukit Timah Road),Beauty World Thai Massage,https://www.channelnewsasia.com/news/singapore/beauty-world-decathlon-lab-covid-19-places-locations-may-29-14911060,Added/ Updated on 2021-05-30,103.776539385678,1.34241264188642,588177
2021-05-25,1500h - 1550h,Tradehub 21 (18 Boon Lay Way),Rodalink Jurong East Bike Megastore,https://www.channelnewsasia.com/news/singapore/beauty-world-decathlon-lab-covid-19-places-locations-may-29-14911060,Added/ Updated on 2021-05-30,103.752749137065,1.32855512493378,609966
2021-05-25,1535h -1630h,Sheng Shiong Supermarket (455 Sengkang West Avenue),,https://www.todayonline.com/singapore/plaza-singapura-and-seletar-mall-among-places-visited-covid-19-cases-while-infectious,Added/ Updated on 2021-06-02,103.871190376558,1.39183688254074,790455
2021-05-25,1800h - 1900h,"Al Barakah Health and Beauty Mart (302 Woodlands Street 
 31)",,https://www.todayonline.com/singapore/2-community-clubs-and-2-hotels-among-places-visited-covid-19-cases-while-infectious-moh,Added/ Updated on 2021-06-04,103.871190376558,1.39183688254074,790455
2021-05-24,0600h - 1500h,The Woodgrove (30 Woodlands Avenue 1),McDonald's,https://www.channelnewsasia.com/news/singapore/covid-19-locations-may-26-mcdonalds-woodlands-poke-theory-novena-14889532,Added/ Updated on 2021-05-27,103.781337285958,1.42933633490183,739065
2021-05-24,0600h - 1900h,Food Hub (455 Sengkang West Avenue),,https://www.channelnewsasia.com/news/singapore/beauty-world-decathlon-lab-covid-19-places-locations-may-29-14911060,Added/ Updated on 2021-05-30,103.871190376558,1.39183688254074,790455
2021-05-24,1155h - 1625h,Ramada (16 Ah Hood Road),,https://www.todayonline.com/singapore/2-community-clubs-and-2-hotels-among-places-visited-covid-19-cases-while-infectious-moh,Added/ Updated on 2021-06-04,103.846340466467,1.32687187826846,NIL
2021-05-24,1230h - 1300h,D'FoodStop@ABC (2 Jalan Bukit Merah),,https://www.todayonline.com/singapore/chinatown-point-plq-mall-among-places-visited-covid-19-cases-while-infectious,Added/ Updated on 2021-05-29,103.80686187976,1.2866292132996,150002
2021-05-24,1235h - 1310h,NTUC FairPrice (30 Bendemeer Road),,https://www.channelnewsasia.com/news/singapore/beauty-world-decathlon-lab-covid-19-places-locations-may-29-14911060,Added/ Updated on 2021-05-30,103.863880362385,1.31906233206995,330030
2021-05-24,1320h - 1530h,NTUC FairPrice (301 Yishun Avenue 2),,https://www.todayonline.com/singapore/2-community-clubs-and-2-hotels-among-places-visited-covid-19-cases-while-infectious-moh,Added/ Updated on 2021-06-04,103.835058273602,1.42951728655036,769093
2021-05-24,1745h - 1845h,Yew Tee Community Club (20 Choa Chu Kang Street 52),,https://www.todayonline.com/singapore/2-community-clubs-and-2-hotels-among-places-visited-covid-19-cases-while-infectious-moh,Added/ Updated on 2021-06-04,103.744971294739,1.39480564592114,689286
2021-05-24,2025h - 2100h,Causeway Point (1 Woodlands Square),,https://www.channelnewsasia.com/news/singapore/fairprice-yishun-mrt-yuhua-village-market-covid-19-locations-moh-14934416,Added/ Updated on 2021-06-03,103.786009973678,1.43608867729912,738099
2021-05-23,0815h - 0920h,Sheng Shiong Supermarket (108 McNair Road),,https://www.channelnewsasia.com/news/singapore/beauty-world-decathlon-lab-covid-19-places-locations-may-29-14911060,Added/ Updated on 2021-05-30,103.859382719506,1.3216190383169,321108
2021-05-23,1100h - 1225h,Jurong Point (1 Jurong West Central 2),,https://www.todayonline.com/singapore/chinatown-point-plq-mall-among-places-visited-covid-19-cases-while-infectious,Added/ Updated on 2021-05-29,103.706685012654,1.33945200436318,NIL
2021-05-23,1100h - 2100h,Indobowl and Royz et Vous (37 & 39 Sultan Gate),,https://www.todayonline.com/singapore/chinatown-point-plq-mall-among-places-visited-covid-19-cases-while-infectious,Added/ Updated on 2021-05-29,103.860620169296,1.30147123912026,198485
2021-05-23,1320h - 1530h,NTUC FairPrice (301 Yishun Avenue 2),,https://www.todayonline.com/singapore/2-community-clubs-and-2-hotels-among-places-visited-covid-19-cases-while-infectious-moh,Added/ Updated on 2021-06-04,103.835058273602,1.42951728655036,769093
2021-05-23,1430h - 1535h,NTUC FairPrice (301 Yishun Avenue 2),,https://www.channelnewsasia.com/news/singapore/fairprice-yishun-mrt-yuhua-village-market-covid-19-locations-moh-14934416,Added/ Updated on 2021-06-03,103.835058273602,1.42951728655036,769093
2021-05-23,1755h - 1830h,Changi City Point (5 Changi Business Park Central 1),,https://www.channelnewsasia.com/news/singapore/covid-19-locations-may-26-mcdonalds-woodlands-poke-theory-novena-14889532,Added/ Updated on 2021-05-27,103.962946043413,1.33408363820793,NIL
2021-05-23,1955h - 2030h,NEX (23 Serangoon Central),FairPrice Xtra,https://www.todayonline.com/singapore/westgate-lucky-plaza-and-mustafa-centre-among-places-visited-covid-19-cases-while,Added/ Updated on 2021-05-28,103.871861615443,1.35067552120318,556083
2021-05-22,0000h - 0400h,The Woodgrove (30 Woodlands Avenue 1),McDonald's,https://www.channelnewsasia.com/news/singapore/covid-19-locations-may-26-mcdonalds-woodlands-poke-theory-novena-14889532,Added/ Updated on 2021-05-27,103.781337285958,1.42933633490183,739065
2021-05-22,0740h - 2000h,West Mall (1 Bukit Batok Central Link),Subway,https://www.channelnewsasia.com/news/singapore/covid-19-locations-may-26-mcdonalds-woodlands-poke-theory-novena-14889532,Added/ Updated on 2021-05-27,103.749021976618,1.35018916560505,658713
2021-05-22,0830h - 0930h,"Fu Nan Traditional Chinese Medicine Centre (152 Bukit 
 Batok Street 11)",,https://www.todayonline.com/singapore/2-community-clubs-and-2-hotels-among-places-visited-covid-19-cases-while-infectious-moh,Added/ Updated on 2021-06-04,103.749021976618,1.35018916560505,658713
2021-05-22,1220h - 1300h,Hup Choon Eating House (1 Binjai Park),,https://www.moh.gov.sg/docs/librariesprovider5/pressroom/press-releases/annexes-(9).pdf,Added/ Updated on 2021-05-26,103.786493273519,1.33583983703734,589818
2021-05-22,1230h - 1300h,NTUC FairPrice (1 Jalan Bukit Merah),,https://www.todayonline.com/singapore/chinatown-point-plq-mall-among-places-visited-covid-19-cases-while-infectious,Added/ Updated on 2021-05-29,103.808286977232,1.28644157642074,150001
2021-05-22,1240h - 1310h,NTUC FairPrice (1 Jalan Bukit Merah),,https://www.todayonline.com/singapore/2-community-clubs-and-2-hotels-among-places-visited-covid-19-cases-while-infectious-moh,Added/ Updated on 2021-06-04,103.808286977232,1.28644157642074,150001
2021-05-22,1320h - 1530h,NTUC FairPrice (301 Yishun Avenue 2),,https://www.todayonline.com/singapore/2-community-clubs-and-2-hotels-among-places-visited-covid-19-cases-while-infectious-moh,Added/ Updated on 2021-06-04,103.835058273602,1.42951728655036,769093
2021-05-22,1435h - 1510h,Sunshine Plaza (475 Choa Chu Kang Avenue 3),Giant Supermarket,https://www.todayonline.com/singapore/resorts-world-sentosa-casino-supermarket-chua-chu-kang-among-places-visited-covid-19-cases,Added/ Updated on 2021-06-01,103.738931794069,1.37805614752084,680475
2021-05-22,1500h - 2100h,Westgate (3 Gateway Drive),Pizza Hut,https://www.channelnewsasia.com/news/singapore/covid-19-locations-may-26-mcdonalds-woodlands-poke-theory-novena-14889532,Added/ Updated on 2021-05-27,103.742722109979,1.33429478930696,NIL
2021-05-22,1515h - 1620h,Joo Chiat Complex (1 Joo Chiat Road),,https://www.channelnewsasia.com/news/singapore/fairprice-yishun-mrt-yuhua-village-market-covid-19-locations-moh-14934416,Added/ Updated on 2021-06-03,103.898397565472,1.31593802099833,420001
2021-05-22,1520h - 1625h,Mustafa Centre (145 Syed Alwi Road),,https://www.todayonline.com/singapore/westgate-lucky-plaza-and-mustafa-centre-among-places-visited-covid-19-cases-while,Added/ Updated on 2021-05-28,103.855002052529,1.31053493112423,207704
2021-05-22,1530h - 1630h,Bukit Timah Plaza (1 Jalan Anak Bukit),FairPrice Finest,https://www.moh.gov.sg/docs/librariesprovider5/pressroom/press-releases/annexes-(9).pdf,Added/ Updated on 2021-05-26,103.778560467143,1.33865677622928,588996
2021-05-22,1605h - 1700h,KINEX (11 Tanjong Katong Road),Eccellente by HAO Mart,https://www.channelnewsasia.com/news/singapore/covid-19-locations-may-26-mcdonalds-woodlands-poke-theory-novena-14889532,Added/ Updated on 2021-05-27,103.894755701595,1.31426620953983,NIL
2021-05-22,1620h - 1655h,Le Quest Mall (4 Bukit Batok Street 41),FairPrice Finest,https://www.channelnewsasia.com/news/singapore/covid-19-locations-may-26-mcdonalds-woodlands-poke-theory-novena-14889532,Added/ Updated on 2021-05-27,103.741127005764,1.35594171176111,657991
2021-05-22,1705h - 1740h,Lucky Plaza (304 Orchard Road),,https://www.todayonline.com/singapore/westgate-lucky-plaza-and-mustafa-centre-among-places-visited-covid-19-cases-while,Added/ Updated on 2021-05-28,103.834005158524,1.3044637897474,NIL
2021-05-22,1710h - 1800h,Hafary Pte Ltd (560 Balestier Road),,https://www.channelnewsasia.com/news/singapore/covid-19-locations-may-26-mcdonalds-woodlands-poke-theory-novena-14889532,Added/ Updated on 2021-05-27,103.844652596814,1.32697917569246,329876
2021-05-22,1900h - 2015h,Lemongrass (476 Upper Serangoon View),,https://www.todayonline.com/singapore/westgate-lucky-plaza-and-mustafa-centre-among-places-visited-covid-19-cases-while,Added/ Updated on 2021-05-28,103.903713550367,1.37743337773734,530476
2021-05-21,0800h - 0850h,Yuhua Community Club (90 Boon Lay Way),,https://www.todayonline.com/singapore/2-community-clubs-and-2-hotels-among-places-visited-covid-19-cases-while-infectious-moh,Added/ Updated on 2021-06-04,103.737115832566,1.33995851319377,609958
2021-05-21,0800h - 2200h,Westgate (3 Gateway Drive),,https://www.todayonline.com/singapore/2-community-clubs-and-2-hotels-among-places-visited-covid-19-cases-while-infectious-moh,Added/ Updated on 2021-06-04,103.742722109979,1.33429478930696,NIL
2021-05-21,0845h - 0915h,Quan Shui Wet Market (156 Bukit Batok Street 11),,https://www.todayonline.com/singapore/resorts-world-sentosa-casino-supermarket-chua-chu-kang-among-places-visited-covid-19-cases,Added/ Updated on 2021-06-01,103.743842009803,1.34836489977938,650156
2021-05-21,0915h - 0950h,Le Quest Mall (4 Bukit Batok Street 41),FairPrice Finest,https://www.channelnewsasia.com/news/singapore/covid-19-locations-may-26-mcdonalds-woodlands-poke-theory-novena-14889532,Added/ Updated on 2021-05-27,103.741127005764,1.35594171176111,657991
2021-05-21,1030h - 1100h,Sri Murugan Hill Temple (931 Upper Bukit Timah Road),,https://www.todayonline.com/singapore/resorts-world-sentosa-casino-supermarket-chua-chu-kang-among-places-visited-covid-19-cases,Added/ Updated on 2021-06-01,103.761623921943,1.37707008676107,678207
2021-05-21,1100h - 1600h,Punggol Plaza (168 Punggol Field),,https://www.todayonline.com/singapore/punggol-plaza-mbs-mall-among-places-visited-covid-19-cases-while-infectious,Added/ Updated on 2021-05-25,103.912976437583,1.39418409438271,820168
2021-05-21,1100h - 2100h,Indobowl and Royz et Vous (37 & 39 Sultan Gate),,https://www.todayonline.com/singapore/chinatown-point-plq-mall-among-places-visited-covid-19-cases-while-infectious,Added/ Updated on 2021-05-29,103.860620169296,1.30147123912026,198485
2021-05-21,1105h - 1155h,Al Forno (East Coast) Pte Ltd (400 East Coast Road),,https://www.todayonline.com/singapore/westgate-lucky-plaza-and-mustafa-centre-among-places-visited-covid-19-cases-while,Added/ Updated on 2021-05-28,103.912040445917,1.30869696282346,428996
2021-05-21,1415h - 1500h,POSB Bukit Batok Branch (636 Bukit Batok Central),,https://www.moh.gov.sg/docs/librariesprovider5/pressroom/press-releases/annexes-(9).pdf,Added/ Updated on 2021-05-26,103.751825708286,1.34963273798353,650636
2021-05-21,1445h - 2100h,Westgate (3 Gateway Drive) ,Pizza Hut,https://www.todayonline.com/singapore/punggol-plaza-mbs-mall-among-places-visited-covid-19-cases-while-infectious,Added/ Updated on 2021-05-25,103.742722109979,1.33429478930696,NIL
2021-05-21,1515h - 1400h,JEM (50 Jurong Gateway Road) ,NTUC Fairprice,https://www.todayonline.com/singapore/changi-city-point-sengkang-sports-complex-among-places-visited-covid-19-cases-while,Added/ Updated on 2021-05-23,103.743262234833,1.3325523295069,NIL
2021-05-21,1600h - 1635h,Da Jin Factory Building (362 Upper Paya Lebar Road),,https://www.todayonline.com/singapore/westgate-lucky-plaza-and-mustafa-centre-among-places-visited-covid-19-cases-while,Added/ Updated on 2021-05-28,103.881382637613,1.34805498296882,534963
2021-05-21,1720h - 1750h,PLQ Mall (10 Paya Lebar Road),,https://www.todayonline.com/singapore/chinatown-point-plq-mall-among-places-visited-covid-19-cases-while-infectious,Added/ Updated on 2021-05-29,103.892724428994,1.31752384637596,409057
2021-05-21,1720h - 1755h,NTP+ (151 Lorong Chuan),"The Social Alley, Singapore",https://www.todayonline.com/singapore/westgate-lucky-plaza-and-mustafa-centre-among-places-visited-covid-19-cases-while,Added/ Updated on 2021-05-28,103.861533171041,1.35148585261178,556741
2021-05-21,1810h - 1940h,Parkway Parade (80 Marine Parade Road),,https://www.todayonline.com/singapore/chinatown-point-plq-mall-among-places-visited-covid-19-cases-while-infectious,Added/ Updated on 2021-05-29,103.905113585904,1.30119130647653,NIL
2021-05-21,1820h - 1900h,Keat Hong Shopping Centre (253 Choa Chu Kang Avenue 1),KFC,https://www.todayonline.com/singapore/westgate-lucky-plaza-and-mustafa-centre-among-places-visited-covid-19-cases-while,Added/ Updated on 2021-05-28,103.744383225684,1.37743963470096,680253
2021-05-21,1905h - 1940h,VivoCity (1 HarbourFront Walk) ,DAISO,https://www.todayonline.com/singapore/punggol-plaza-mbs-mall-among-places-visited-covid-19-cases-while-infectious,Added/ Updated on 2021-05-25,103.82238251183,1.26427727331345,NIL
2021-05-21,1940h - 2010h,VivoCity (1 HarbourFront Walk) ,"Toys""R""Us",https://www.todayonline.com/singapore/punggol-plaza-mbs-mall-among-places-visited-covid-19-cases-while-infectious,Added/ Updated on 2021-05-25,103.82238251183,1.26427727331345,NIL
2021-05-21,2010h - 2110h,Bukit Batok Golf Range (2 Bukit Batok West Avenue 7),,https://www.todayonline.com/singapore/resorts-world-sentosa-casino-supermarket-chua-chu-kang-among-places-visited-covid-19-cases,Added/ Updated on 2021-06-01,103.748520902563,1.36577391240463,659003
2021-05-20,0810h - 1255h,Resorts World Sentosa Casino (8 Sentosa Gateway),,https://www.todayonline.com/singapore/resorts-world-sentosa-casino-supermarket-chua-chu-kang-among-places-visited-covid-19-cases,Added/ Updated on 2021-06-01,103.820310245477,1.25675542276498,098269
2021-05-20,1150h - 1225h,Prime Supermarket (373 Bukit Batok Street 31),,https://www.channelnewsasia.com/news/singapore/covid-19-locations-sim-lim-square-ikea-jurong-library-14872628,Added/ Updated on 2021-05-24,103.750397174291,1.35892457118178,650373
2021-05-20,1150h - 1225h,Prime Supermarket (373 Bukit Batok Street 31),,https://www.channelnewsasia.com/news/singapore/covid-19-locations-sim-lim-square-ikea-jurong-library-14872628,Added/ Updated on 2021-05-24,103.750397174291,1.35892457118178,650373
2021-05-20,1340h - 1510h,Kaki Bukit Recreation Centre (7 Kaki Bukit Avenue 3),POSB Account Services Centre,https://www.todayonline.com/singapore/changi-city-point-sengkang-sports-complex-among-places-visited-covid-19-cases-while,Added/ Updated on 2021-05-23,103.90663168981,1.33729714367902,415814
2021-05-20,1420h - 1520h,ION Orchard (2 Orchard Turn),FLNT at 1-ATICO,https://www.todayonline.com/singapore/westgate-lucky-plaza-and-mustafa-centre-among-places-visited-covid-19-cases-while,Added/ Updated on 2021-05-28,103.831774296637,1.30419841973372,NIL
2021-05-20,1510h - 2100h,Westgate (3 Gateway Drive) ,Pizza Hut,https://www.todayonline.com/singapore/punggol-plaza-mbs-mall-among-places-visited-covid-19-cases-while-infectious,Added/ Updated on 2021-05-25,103.742722109979,1.33429478930696,NIL
2021-05-20,1600h - 2300h,Punggol Plaza (168 Punggol Field),,https://www.todayonline.com/singapore/punggol-plaza-mbs-mall-among-places-visited-covid-19-cases-while-infectious,Added/ Updated on 2021-05-25,103.912976437583,1.39418409438271,820168
2021-05-20,1700h - 2200h,Poke Theory (238 Thomson Road),,https://www.channelnewsasia.com/news/singapore/covid-19-locations-may-26-mcdonalds-woodlands-poke-theory-novena-14889532,Added/ Updated on 2021-05-27,103.843840430508,1.32045851808391,NIL
2021-05-20,1730h - 1820h,Chinatown Point (133 New Bridge Road),,https://www.todayonline.com/singapore/chinatown-point-plq-mall-among-places-visited-covid-19-cases-while-infectious,Added/ Updated on 2021-05-29,103.844942912274,1.28518516098542,NIL
2021-05-20,1820h - 1920h ,Rains Foot Massage (6 Hougang Avenue 3),,https://www.todayonline.com/singapore/resorts-world-sentosa-casino-supermarket-chua-chu-kang-among-places-visited-covid-19-cases,Added/ Updated on 2021-06-01,103.893980503167,1.36271446291047,530006
2021-05-19,0930h - 2130h,Holland Piazza (3 Lorong Liput),Tiger Sugar,https://www.moh.gov.sg/docs/librariesprovider5/pressroom/press-releases/annexes-(9).pdf,Added/ Updated on 2021-05-26,103.795246166084,1.31064349551562,277725
2021-05-19,1030h - 2000h,Westgate (3 Westgate Drive) ,Fun Toast,https://www.todayonline.com/singapore/changi-city-point-sengkang-sports-complex-among-places-visited-covid-19-cases-while,Added/ Updated on 2021-05-23,103.742870105512,1.33428313049536,608532
2021-05-19,1320h - 1530h,NTUC FairPrice (301 Yishun Avenue 2),,https://www.channelnewsasia.com/news/singapore/fairprice-yishun-mrt-yuhua-village-market-covid-19-locations-moh-14934416,"Added/ Updated on 2021-06-03, Date is till 30 May 2021",103.835058273602,1.42951728655036,769093
2021-05-19,1420h - 1500h,Health Management Centre (809 French Road),,https://www.todayonline.com/singapore/resorts-world-sentosa-casino-supermarket-chua-chu-kang-among-places-visited-covid-19-cases,Added/ Updated on 2021-06-01,103.862059784174,1.3083939667367,200809
2021-05-19,1420h - 1520h,Woodlands Regional Library (900 South Woodlands Drive),,https://www.moh.gov.sg/docs/librariesprovider5/pressroom/press-releases/annexes-(9).pdf,Added/ Updated on 2021-05-26,103.786857742853,1.43518691179968,NIL
2021-05-19,1420h - 1525h,Woodlands Civic Centre (900 South Woodlands Drive),Workforce Singapore's CareerConnect,https://www.channelnewsasia.com/news/singapore/covid-19-locations-may-26-mcdonalds-woodlands-poke-theory-novena-14889532,Added/ Updated on 2021-05-27,103.786857742853,1.43518691179968,NIL
2021-05-19,1430h - 1535h,NTUC FairPrice (301 Yishun Avenue 2),,https://www.channelnewsasia.com/news/singapore/fairprice-yishun-mrt-yuhua-village-market-covid-19-locations-moh-14934416,Added/ Updated on 2021-06-03,103.835058273602,1.42951728655036,769093
2021-05-19,1515h - 1550h,Causeway Point (1 Woodlands Square),Tonkotsu Hototogisu,https://www.channelnewsasia.com/news/singapore/covid-19-locations-may-26-mcdonalds-woodlands-poke-theory-novena-14889532,Added/ Updated on 2021-05-27,103.786009973678,1.43608867729912,738099
2021-05-19,1515h - 1550h,Causeway Point (1 Woodlands Square),UOB,https://www.moh.gov.sg/docs/librariesprovider5/pressroom/press-releases/annexes-(9).pdf,Added/ Updated on 2021-05-26,103.786009973678,1.43608867729912,738099
2021-05-19,1520h - 2100h,Westgate (3 Gateway Drive) ,Pizza Hut,https://www.todayonline.com/singapore/punggol-plaza-mbs-mall-among-places-visited-covid-19-cases-while-infectious,Added/ Updated on 2021-05-25,103.742722109979,1.33429478930696,NIL
2021-05-19,1600h - 0020h,Resorts World Sentosa Casino (8 Sentosa Gateway),,https://www.todayonline.com/singapore/resorts-world-sentosa-casino-supermarket-chua-chu-kang-among-places-visited-covid-19-cases,Added/ Updated on 2021-06-01,103.820310245477,1.25675542276498,098269
2021-05-19,1600h - 2300h,Punggol Plaza (168 Punggol Field),,https://www.todayonline.com/singapore/punggol-plaza-mbs-mall-among-places-visited-covid-19-cases-while-infectious,Added/ Updated on 2021-05-25,103.912976437583,1.39418409438271,820168
2021-05-19,1745h - 1830h,Westgate (3 Gateway Drive) ,RedMan by Phoon Huat,https://www.todayonline.com/singapore/changi-city-point-sengkang-sports-complex-among-places-visited-covid-19-cases-while,Added/ Updated on 2021-05-23,103.742722109979,1.33429478930696,NIL
2021-05-18,0730h - 2000h,Westgate (3 Westgate Drive) ,Fun Toast,https://www.todayonline.com/singapore/changi-city-point-sengkang-sports-complex-among-places-visited-covid-19-cases-while,Added/ Updated on 2021-05-23,103.742870105512,1.33428313049536,608532
2021-05-18,1115h - 1220h,Geylang Serai Malay Market and Food Centre (1 Geylang Serai),,https://www.todayonline.com/singapore/changi-city-point-sengkang-sports-complex-among-places-visited-covid-19-cases-while,Added/ Updated on 2021-05-23,103.898227885294,1.31673634902958,402001
2021-05-18,1315h - 1400h,White Sands (1 Pasir Ris Central Street 3) ,NTUC FairPrice,https://www.todayonline.com/singapore/peninsula-plaza-causeway-point-and-several-supermarkets-among-places-visited-covid-19,Added/ Updated on 2021-05-21,103.949749226457,1.37239898072242,518457
2021-05-18,1515h - 2100h,Westgate (3 Gateway Drive) ,Pizza Hut,https://www.todayonline.com/singapore/punggol-plaza-mbs-mall-among-places-visited-covid-19-cases-while-infectious,Added/ Updated on 2021-05-25,103.742722109979,1.33429478930696,NIL
2021-05-18,1625h - 1725h,PLQ Mall (10 Paya Lebar Road),,https://www.todayonline.com/singapore/chinatown-point-plq-mall-among-places-visited-covid-19-cases-while-infectious,Added/ Updated on 2021-05-29,103.892724428994,1.31752384637596,409057
2021-05-18,1755h - 1835h,Madam Fang Hairdressing & Beauty Saloon (1989) (510 Bedok North Street 3),,https://www.todayonline.com/singapore/changi-city-point-sengkang-sports-complex-among-places-visited-covid-19-cases-while,Added/ Updated on 2021-05-23,103.930496816187,1.33233655577229,460510
2021-05-18,1800h - 1845h,Giant @ IMM (2 Jurong East Street 21),Giant Hypermarket,https://www.todayonline.com/singapore/changi-city-point-sengkang-sports-complex-among-places-visited-covid-19-cases-while,Added/ Updated on 2021-05-23,103.746638235324,1.33502430989432,NIL
2021-05-17,0730h - 2000h,Westgate (3 Westgate Drive) ,Fun Toast,https://www.todayonline.com/singapore/changi-city-point-sengkang-sports-complex-among-places-visited-covid-19-cases-while,Added/ Updated on 2021-05-23,103.742870105512,1.33428313049536,608532
2021-05-17,1000h - 1130h,Kong Meng San Phor Kark See Monastery (88 Bright Hill Road),,https://www.todayonline.com/singapore/peninsula-plaza-causeway-point-and-several-supermarkets-among-places-visited-covid-19,Added/ Updated on 2021-05-21,103.836519069051,1.3605199364473,574117
2021-05-17,1000h - 2200h,KFC (35 Jalan Mas Puteh),,https://www.todayonline.com/singapore/peninsula-plaza-causeway-point-and-several-supermarkets-among-places-visited-covid-19,Added/ Updated on 2021-05-21,103.762278702257,1.30844135523806,128635
2021-05-17,1130h - 1830h,Golden Landmark Shopping Centre (390 Victoria Street),Hijabville,https://www.todayonline.com/singapore/changi-city-point-sengkang-sports-complex-among-places-visited-covid-19-cases-while,Added/ Updated on 2021-05-23,103.857847794036,1.30189677580548,188061
2021-05-17,1245h - 1350h,Jurong Regional Library (21 Jurong East Central 1),,https://www.channelnewsasia.com/news/singapore/covid-19-locations-sim-lim-square-ikea-jurong-library-14872628,Added/ Updated on 2021-05-24,103.739492767422,1.33288031932833,609732
2021-05-17,1300h - 1330h,Tiong Bahru Plaza (302 Tiong Bahru Road),POSB,https://www.todayonline.com/singapore/westgate-lucky-plaza-and-mustafa-centre-among-places-visited-covid-19-cases-while,Added/ Updated on 2021-05-28,103.827158267789,1.28647119992724,168732
2021-05-17,1310h - 1340h,Masjid Jamae (Chulia) (218 South Bridge Road),,https://www.channelnewsasia.com/news/singapore/covid-19-locations-visited-may-21-far-east-plaza-14859090,Added/ Updated on 2021-05-22,103.845394767843,1.28319555478948,058767
2021-05-17,1415h - 1520h,Jurong Point (1 Jurong West Central 2),Yue Hwa Chinese Products,https://www.channelnewsasia.com/news/singapore/covid-19-locations-may-26-mcdonalds-woodlands-poke-theory-novena-14889532,Added/ Updated on 2021-05-27,103.706685012654,1.33945200436318,NIL
2021-05-17,1505h - 2100h,Westgate (3 Gateway Drive) ,Pizza Hut,https://www.todayonline.com/singapore/punggol-plaza-mbs-mall-among-places-visited-covid-19-cases-while-infectious,Added/ Updated on 2021-05-25,103.742722109979,1.33429478930696,NIL
2021-05-17,1530h - 1615h,Sun Plaza (30 Sembawang Drive) ,NTUC FairPrice,https://www.todayonline.com/singapore/peninsula-plaza-causeway-point-and-several-supermarkets-among-places-visited-covid-19,Added/ Updated on 2021-05-21,103.819462102812,1.44822653818275,757713
2021-05-17,1845h - 1945h,Hair Label Salon (57A New Upper Changi Road),,https://www.todayonline.com/singapore/resorts-world-sentosa-casino-supermarket-chua-chu-kang-among-places-visited-covid-19-cases,Added/ Updated on 2021-06-01,103.94128871491,1.32371678676906,462057
2021-05-17,1940h - 2015h,West Mall (1 Bukit Batok Central Link),,https://www.channelnewsasia.com/news/singapore/covid-19-locations-sim-lim-square-ikea-jurong-library-14872628,Added/ Updated on 2021-05-24,103.749021976618,1.35018916560505,658713
2021-05-17,2025h - 2105h,Viva Business Park (750A Chai Chee Road) ,Decathlon Bedok,https://www.todayonline.com/singapore/changi-city-point-sengkang-sports-complex-among-places-visited-covid-19-cases-while,Added/ Updated on 2021-05-23,103.922124606113,1.32297820248267,469001
2021-05-16,0845h - 0915h,Sheng Siong Supermarket (52 Chin Swee Road),,https://www.moh.gov.sg/docs/librariesprovider5/default-document-library/annexes9f1bd59862d64d81862ae7ff2f978152.pdf,Refreshed on 2021-05-20,103.841580109275,1.28708278284997,160052
2021-05-16,0915h - 0955h,Sheng Siong Supermarket (4 Toa Payoh Lorong 7),,https://www.todayonline.com/singapore/changi-city-point-sengkang-sports-complex-among-places-visited-covid-19-cases-while,Added/ Updated on 2021-05-23,103.85554106336,1.33904479783226,310004
2021-05-16,0950h - 1030h,Great World City (1 Kim Seng Promenade) ,MEIDI-YA Supermarket,https://www.moh.gov.sg/docs/librariesprovider5/default-document-library/annexes9f1bd59862d64d81862ae7ff2f978152.pdf,Refreshed on 2021-05-20,103.831975865363,1.29347596207041,NIL
2021-05-16,1000h - 2200h,KFC (35 Jalan Mas Puteh),,https://www.todayonline.com/singapore/peninsula-plaza-causeway-point-and-several-supermarkets-among-places-visited-covid-19,Added/ Updated on 2021-05-21,103.762278702257,1.30844135523806,128635
2021-05-16,1015h - 1100h,Prime Supermarket (823 Tampines Street 81),,https://www.todayonline.com/singapore/peninsula-plaza-causeway-point-and-several-supermarkets-among-places-visited-covid-19,Added/ Updated on 2021-05-21,103.934010232785,1.34873284518968,520823
2021-05-16,1020h - 1055h,Sheng Siong Supermarket (154A Bukit Batok West Avenue 8),,https://www.todayonline.com/singapore/punggol-plaza-mbs-mall-among-places-visited-covid-19-cases-while-infectious,Added/ Updated on 2021-05-25,103.743704684376,1.34738825473827,651154
2021-05-16,1055h - 1130h,TripleOne Somerset (111 Somerset Road),FairPrice Finest,https://www.moh.gov.sg/docs/librariesprovider5/default-document-library/annexes9f1bd59862d64d81862ae7ff2f978152.pdf,Refreshed on 2021-05-20,103.837362540861,1.30019272342804,238164
2021-05-16,1115h - 1215h,Snip Avenue (156 Bukit Batok Street 11),,https://www.channelnewsasia.com/news/singapore/covid-19-locations-sim-lim-square-ikea-jurong-library-14872628,Added/ Updated on 2021-05-24,103.743842009803,1.34836489977938,650156
2021-05-16,1115h - 1245h,Causeway Point (1 Woodlands Square),,https://www.channelnewsasia.com/news/singapore/covid-19-locations-visited-may-21-far-east-plaza-14859090,Added/ Updated on 2021-05-22,103.786009973678,1.43608867729912,738099
2021-05-16,1135h - 1210h,Boon Lay Shopping Centre (221 Boon Lay Place),NTUC FairPrice,https://www.channelnewsasia.com/news/singapore/covid-19-locations-sim-lim-square-ikea-jurong-library-14872628,Added/ Updated on 2021-05-24,103.712472819666,1.34637376407877,640221
2021-05-16,1305h - 1355h,Sim Lim Square (1 Rochor Canal Road),,https://www.channelnewsasia.com/news/singapore/covid-19-locations-sim-lim-square-ikea-jurong-library-14872628,Added/ Updated on 2021-05-24,103.852875622062,1.30302298515261,188504
2021-05-16,1320h - 1350h,Lucky Plaza (304 Orchard Road),Ayam Penyet President,https://www.todayonline.com/singapore/westgate-lucky-plaza-and-mustafa-centre-among-places-visited-covid-19-cases-while,Added/ Updated on 2021-05-28,103.834005158524,1.3044637897474,NIL
2021-05-16,1405h - 1445h,NTUC Fairprice (570B Woodlands Avenue 1),,https://www.todayonline.com/singapore/peninsula-plaza-causeway-point-and-several-supermarkets-among-places-visited-covid-19,Added/ Updated on 2021-05-21,103.790454078756,1.43106395458306,732570
2021-05-16,1415h - 1525h,Cash Converters (710A Ang Mo Kio Avenue 8),,https://www.todayonline.com/singapore/peninsula-plaza-causeway-point-and-several-supermarkets-among-places-visited-covid-19,Added/ Updated on 2021-05-21,103.847868789047,1.37073128033233,NIL
2021-05-16,1425h - 1455h,Chinatown Point (133 New Bridge Road),,https://www.todayonline.com/singapore/chinatown-point-plq-mall-among-places-visited-covid-19-cases-while-infectious,Added/ Updated on 2021-05-29,103.844942912274,1.28518516098542,NIL
2021-05-16,1510h - 1540h,Lucky Plaza (304 Orchard Road),Jollibee,https://www.todayonline.com/singapore/westgate-lucky-plaza-and-mustafa-centre-among-places-visited-covid-19-cases-while,Added/ Updated on 2021-05-28,103.834005158524,1.3044637897474,NIL
2021-05-16,1520h - 1600h,Toa Payoh East Community Club (160 Toa Payoh Lorong 6),,https://www.todayonline.com/singapore/changi-city-point-sengkang-sports-complex-among-places-visited-covid-19-cases-while,Added/ Updated on 2021-05-23,103.854700248891,1.33627489786903,319380
2021-05-16,1535h - 1620h,Toa Payoh Central (520 Lorong 6 Toa Payoh) ,OCBC,https://www.moh.gov.sg/docs/librariesprovider5/default-document-library/annexes9f1bd59862d64d81862ae7ff2f978152.pdf,Refreshed on 2021-05-20,103.847464972969,1.3331304765624,310520
2021-05-16,1745h - 1850h,Sun Plaza (30 Sembawang Drive),,https://www.todayonline.com/singapore/peninsula-plaza-causeway-point-and-several-supermarkets-among-places-visited-covid-19,Added/ Updated on 2021-05-21,103.819462102812,1.44822653818275,757713
2021-05-16,2010h - 2110h,Giant Supermarket (376 Bukit Batok Street 31),,https://www.todayonline.com/singapore/changi-city-point-sengkang-sports-complex-among-places-visited-covid-19-cases-while,Added/ Updated on 2021-05-23,103.749579868748,1.35831705249924,650376
2021-05-16,2240h - 2330h,Mustafa Centre (145 Syed Alwi Road),,https://www.moh.gov.sg/docs/librariesprovider5/default-document-library/annexes9f1bd59862d64d81862ae7ff2f978152.pdf,Refreshed on 2021-05-20,103.855002052529,1.31053493112423,207704
2021-05-15,0700h - 1630h,Canberra Plaza (133 Canberra View),,https://www.todayonline.com/singapore/peninsula-plaza-causeway-point-and-several-supermarkets-among-places-visited-covid-19,Added/ Updated on 2021-05-21,103.83052345616,1.44324523168314,750133
2021-05-15,0725h - 0755h,Rivervale Plaza (118 Rivervale Drive) ,Koufu,https://www.moh.gov.sg/docs/librariesprovider5/default-document-library/annexes9f1bd59862d64d81862ae7ff2f978152.pdf,Refreshed on 2021-05-20,103.901849634797,1.385371516087,540118
2021-05-15,0800h - 0830h,McDonald's (311 Upper Changi Road),,https://www.channelnewsasia.com/news/singapore/covid-19-locations-visited-may-21-far-east-plaza-14859090,Added/ Updated on 2021-05-22,103.92940545649,1.32466897396908,467360
2021-05-15,0900h - 0930h,Jinwei Hai Xian (280 Bishan Street 24),,https://www.moh.gov.sg/docs/librariesprovider5/default-document-library/annexes9f1bd59862d64d81862ae7ff2f978152.pdf,Refreshed on 2021-05-20,103.844275790603,1.35742119635954,570280
2021-05-15,0930h - 1030h,NTUC FairPrice (279 Bishan Street 24),,https://www.moh.gov.sg/docs/librariesprovider5/default-document-library/annexes9f1bd59862d64d81862ae7ff2f978152.pdf,Refreshed on 2021-05-20,103.843790117762,1.35728842987327,570279
2021-05-15,1000h - 1100h,Jurong Point (1 Jurong West Central 2),NTUC FairPrice,https://www.moh.gov.sg/docs/librariesprovider5/default-document-library/annexes9f1bd59862d64d81862ae7ff2f978152.pdf,Refreshed on 2021-05-20,103.706685012654,1.33945200436318,NIL
2021-05-15,1000h - 1120h,Jurong Point (1 Jurong West Central 2) ,NTUC FairPrice,https://www.todayonline.com/singapore/peninsula-plaza-causeway-point-and-several-supermarkets-among-places-visited-covid-19,Added/ Updated on 2021-05-21,103.706685012654,1.33945200436318,NIL
2021-05-15,1010h - 1055h,Hola Cafeteria (248 Simei Street 5),,https://www.moh.gov.sg/docs/librariesprovider5/default-document-library/annexes9f1bd59862d64d81862ae7ff2f978152.pdf,Refreshed on 2021-05-20,103.953541142825,1.34359376269609,520248
2021-05-15,1030h - 1600h,Coronation Shopping Plaza (587 Bukit Timah Road),The Goodburger Food Truck,https://www.moh.gov.sg/docs/librariesprovider5/default-document-library/annexes9f1bd59862d64d81862ae7ff2f978152.pdf,Refreshed on 2021-05-20,103.810002032513,1.32383369976841,NIL
2021-05-15,1045h - 1120h,Sheng Siong Supermarket (4 Toa Payoh Lorong 7),,https://www.todayonline.com/singapore/changi-city-point-sengkang-sports-complex-among-places-visited-covid-19-cases-while,Added/ Updated on 2021-05-23,103.85554106336,1.33904479783226,310004
2021-05-15,1100h - 1600h,Westgate (3 Gateway Drive) ,Pizza Hut,https://www.todayonline.com/singapore/punggol-plaza-mbs-mall-among-places-visited-covid-19-cases-while-infectious,Added/ Updated on 2021-05-25,103.742722109979,1.33429478930696,NIL
2021-05-15,1120h - 1150h,Jurong Point (1 Jurong West Central 2),Watsons,https://www.moh.gov.sg/docs/librariesprovider5/default-document-library/annexes9f1bd59862d64d81862ae7ff2f978152.pdf,Refreshed on 2021-05-20,103.706685012654,1.33945200436318,NIL
2021-05-15,1155h - 1300h,Woodlands Civic Centre (900 South Woodlands Drive),Woodlands Regional Library,https://www.channelnewsasia.com/news/singapore/covid-19-locations-sim-lim-square-ikea-jurong-library-14872628,Added/ Updated on 2021-05-24,103.786857742853,1.43518691179968,NIL
2021-05-15,1200h - 1235h,Changi City Point (5 Changi Business Park Central 1) ,Hans,https://www.moh.gov.sg/docs/librariesprovider5/default-document-library/annexes9f1bd59862d64d81862ae7ff2f978152.pdf,Refreshed on 2021-05-20,103.962946043413,1.33408363820793,NIL
2021-05-15,1200h - 1245h,Phoon Huat (107 Lorong 1 Toa Payoh),,https://www.moh.gov.sg/docs/librariesprovider5/default-document-library/annexes9f1bd59862d64d81862ae7ff2f978152.pdf,Refreshed on 2021-05-20,103.847294021513,1.34123358840729,310107
2021-05-15,1200h - 1300h,Broadway Coffeeshop (155 Bukit Batok Street 11),,https://www.todayonline.com/singapore/punggol-plaza-mbs-mall-among-places-visited-covid-19-cases-while-infectious,Added/ Updated on 2021-05-25,103.743595035,1.3480262095627,650155
2021-05-15,1200h - 1300h,NTUC FairPrice (345 Jurong East Street 31),,https://www.moh.gov.sg/docs/librariesprovider5/default-document-library/annexes9f1bd59862d64d81862ae7ff2f978152.pdf,Refreshed on 2021-05-20,103.73121914575,1.3455121058675,600345
2021-05-15,1230h - 1335h,Mandai Crematorium and Columbarium Complex (300 Mandai Road),Yue Hwa Chinese Products,https://www.channelnewsasia.com/news/singapore/covid-19-locations-may-26-mcdonalds-woodlands-poke-theory-novena-14889532,Added/ Updated on 2021-05-27,103.809638369507,1.41380605332013,779393
2021-05-15,1300h - 1400h,Ghim Moh Market and Food Centre (20 Ghim Moh Road),,https://www.moh.gov.sg/docs/librariesprovider5/default-document-library/annexes9f1bd59862d64d81862ae7ff2f978152.pdf,Refreshed on 2021-05-20,103.788241408454,1.31091018371374,270020
2021-05-15,1310h - 1400h,Changi Airport Terminal 1 (80 Airport Boulevard),,https://www.todayonline.com/singapore/punggol-plaza-mbs-mall-among-places-visited-covid-19-cases-while-infectious,Added/ Updated on 2021-05-25,103.99060554697,1.36129123176598,819642
2021-05-15,1310h - 1520h,Causeway Point (1 Woodlands Square),Shabu Sai,https://www.channelnewsasia.com/news/singapore/covid-19-locations-sim-lim-square-ikea-jurong-library-14872628,Added/ Updated on 2021-05-24,103.786009973678,1.43608867729912,738099
2021-05-15,1320h - 1520h,313@Somerset (313 Orchard Road) ,Josh's Grill,https://www.moh.gov.sg/docs/librariesprovider5/default-document-library/annexes9f1bd59862d64d81862ae7ff2f978152.pdf,Refreshed on 2021-05-20,103.838350465208,1.30097808212209,238895
2021-05-15,1330h - 1430h,Far East Plaza (14 Scotts Road),Wok Wei Kitchen,https://www.channelnewsasia.com/news/singapore/covid-19-locations-visited-may-21-far-east-plaza-14859090,Added/ Updated on 2021-05-22,103.833664932875,1.30724675116163,228213
2021-05-15,1415h - 1545h,Bukit Panjang Plaza (1 Jelebu Road),POPULAR Bookstore,https://www.channelnewsasia.com/news/singapore/covid-19-locations-visited-may-21-far-east-plaza-14859090,Added/ Updated on 2021-05-22,103.763993944333,1.38054245606299,NIL
2021-05-15,1415h - 1630h,Causeway Point (1 Woodlands Square),,https://www.todayonline.com/singapore/peninsula-plaza-causeway-point-and-several-supermarkets-among-places-visited-covid-19,Added/ Updated on 2021-05-21,103.786009973678,1.43608867729912,738099
2021-05-15,1425h - 1545h,Far East Plaza (14 Scotts Road),One Care Reflexology and Wellness,https://www.channelnewsasia.com/news/singapore/covid-19-locations-visited-may-21-far-east-plaza-14859090,Added/ Updated on 2021-05-22,103.833664932875,1.30724675116163,228213
2021-05-15,1500h - 1530h,7-Eleven Resorts World Station (32 Sentosa Gateway),,https://www.moh.gov.sg/docs/librariesprovider5/default-document-library/annexes9f1bd59862d64d81862ae7ff2f978152.pdf,Refreshed on 2021-05-20,103.820949650589,1.25553213302224,098141
2021-05-15,1500h - 1700h,Lao Si Chuan Dou Hua Zhuang (46 Temple Street),,https://www.moh.gov.sg/docs/librariesprovider5/default-document-library/annexes9f1bd59862d64d81862ae7ff2f978152.pdf,Refreshed on 2021-05-20,103.843746846036,1.28327802168392,058591
2021-05-15,1515h - 1710h,YWCA Fort Canning (6 Fort Canning Road),,https://www.moh.gov.sg/docs/librariesprovider5/default-document-library/annexes9f1bd59862d64d81862ae7ff2f978152.pdf,Refreshed on 2021-05-20,103.844939104971,1.29724000120006,179494
2021-05-15,1530h - 1735h,The Punggol Settlement (500 New Punggol Road),Sun Bistro,https://www.moh.gov.sg/docs/librariesprovider5/default-document-library/annexes9f1bd59862d64d81862ae7ff2f978152.pdf,Refreshed on 2021-05-20,103.912002388217,1.42088971823949,828617
2021-05-15,1540h - 2100h,Woodlands Civic Centre (900 South Woodlands Drive),Woodlands Regional Library,https://www.channelnewsasia.com/news/singapore/covid-19-locations-sim-lim-square-ikea-jurong-library-14872628,Added/ Updated on 2021-05-24,103.786857742853,1.43518691179968,NIL
2021-05-15,1600h - 2200h,KFC (35 Jalan Mas Puteh),,https://www.todayonline.com/singapore/peninsula-plaza-causeway-point-and-several-supermarkets-among-places-visited-covid-19,Added/ Updated on 2021-05-21,103.762278702257,1.30844135523806,128635
2021-05-15,1645h - 1730h,Tiong Bahru Plaza (298 Tiong Bahru Road) ,Long John Silvers,https://www.todayonline.com/singapore/chinatown-point-plq-mall-among-places-visited-covid-19-cases-while-infectious,Added/ Updated on 2021-05-29,103.828004844701,1.2863085351796,168730
2021-05-15,1645h - 2045h,Tiong Bahru Plaza (298 Tiong Bahru Road),,https://www.todayonline.com/singapore/chinatown-point-plq-mall-among-places-visited-covid-19-cases-while-infectious,Added/ Updated on 2021-05-29,103.828004844701,1.2863085351796,168730
2021-05-15,1715h - 1745h,Sun Plaza (30 Sembawang Drive) ,NTUC FairPrice,https://www.todayonline.com/singapore/peninsula-plaza-causeway-point-and-several-supermarkets-among-places-visited-covid-19,Added/ Updated on 2021-05-21,103.819462102812,1.44822653818275,757713
2021-05-15,1740h - 1810h,ION Orchard (2 Orchard Turn),,https://www.channelnewsasia.com/news/singapore/covid-19-locations-sim-lim-square-ikea-jurong-library-14872628,Added/ Updated on 2021-05-24,103.831774296637,1.30419841973372,NIL
2021-05-15,1805h - 1905h,Raffles Holland V Mall (118 Holland Avenue) ,Sushi Tei,https://www.todayonline.com/singapore/chinatown-point-plq-mall-among-places-visited-covid-19-cases-while-infectious,Added/ Updated on 2021-05-29,103.796105203103,1.31052977905884,278997
2021-05-15,1815h - 2020h,Changi City Point (5 Changi Business Park Central 1),"Saizeriya, Daiso",https://www.todayonline.com/singapore/changi-city-point-sengkang-sports-complex-among-places-visited-covid-19-cases-while,Added/ Updated on 2021-05-23,103.962946043413,1.33408363820793,NIL
2021-05-15,1825h - 2025h,The Punggol Settlement (500 New Punggol Road),Relax Bar,https://www.moh.gov.sg/docs/librariesprovider5/default-document-library/annexes9f1bd59862d64d81862ae7ff2f978152.pdf,Refreshed on 2021-05-20,103.912002388217,1.42088971823949,828617
2021-05-15,1930h - 2030h,The Carving Board (252 Jurong East Street 24),,https://www.moh.gov.sg/docs/librariesprovider5/default-document-library/annexes9f1bd59862d64d81862ae7ff2f978152.pdf,Refreshed on 2021-05-20,103.738233469424,1.34306217556914,600252
2021-05-15,1930h - 2130h,Chang Cheng HQ (27 Woodlands Link),,https://www.moh.gov.sg/docs/librariesprovider5/default-document-library/annexes9f1bd59862d64d81862ae7ff2f978152.pdf,Refreshed on 2021-05-20,103.810861351045,1.45240763472005,738732
2021-05-15,2050h - 2150h,Arya Samaj Building (114 Syed Alwi Road) ,Malabar Gold & Diamonds Pte Ltd,https://www.todayonline.com/singapore/punggol-plaza-mbs-mall-among-places-visited-covid-19-cases-while-infectious,Added/ Updated on 2021-05-25,103.85503376296,1.30990992790192,207682
2021-05-15,2200h - 0000h,BBQ Box @ Bukit Timah (22 Cheong Chin Nam Road),,https://www.channelnewsasia.com/news/singapore/covid-19-locations-may-26-mcdonalds-woodlands-poke-theory-novena-14889532,Added/ Updated on 2021-05-27,103.775032268285,1.34364174837769,599746
2021-05-15,2210h - 2300h,SAFRA Yishun (60 Yishun Avenue 4),McDonald's,https://www.channelnewsasia.com/news/singapore/covid-19-locations-sim-lim-square-ikea-jurong-library-14872628,Added/ Updated on 2021-05-24,103.840902278162,1.42429829576671,769027
2021-05-15,2220h - 2320h,Mustafa Centre (145 Syed Alwi Road),,https://www.todayonline.com/singapore/punggol-plaza-mbs-mall-among-places-visited-covid-19-cases-while-infectious,Added/ Updated on 2021-05-25,103.855002052529,1.31053493112423,207704
2021-05-14,0030h - 0200h,Rochor Beancurd House (745 Geylang Road),,https://www.moh.gov.sg/docs/librariesprovider5/default-document-library/annexes9f1bd59862d64d81862ae7ff2f978152.pdf,Refreshed on 2021-05-20,103.890631106434,1.31500882023433,389653
2021-05-14,0810h - 0910h,Marsiling MRT Station (71 Woodlands Avenue 3) ,NTUC FairPrice,https://www.moh.gov.sg/docs/librariesprovider5/default-document-library/annexes9f1bd59862d64d81862ae7ff2f978152.pdf,Refreshed on 2021-05-20,103.774051197031,1.43262603485889,739044
2021-05-14,0900h - 1000h,Shunfu Mart Food Centre (320 Shunfu Road),,https://www.moh.gov.sg/docs/librariesprovider5/default-document-library/annexes9f1bd59862d64d81862ae7ff2f978152.pdf,Refreshed on 2021-05-20,103.837031862103,1.3520074540159,570320
2021-05-14,1030h - 1700h,Toast & Curry (43 Siloso Beach Walk),,https://www.moh.gov.sg/docs/librariesprovider5/default-document-library/annexes9f1bd59862d64d81862ae7ff2f978152.pdf,Refreshed on 2021-05-20,103.81755421712,1.25200579229141,099010
2021-05-14,1030h - 1700h,Coronation Shopping Plaza (587 Bukit Timah Road),The Goodburger Food Truck,https://www.moh.gov.sg/docs/librariesprovider5/default-document-library/annexes9f1bd59862d64d81862ae7ff2f978152.pdf,Refreshed on 2021-05-20,103.810002032513,1.32383369976841,NIL
2021-05-14,1115h - 1200h,FairPrice Hub (1 Joo Koon Circle),Decathlon Joo Koon,https://www.channelnewsasia.com/news/singapore/covid-19-locations-sim-lim-square-ikea-jurong-library-14872628,Added/ Updated on 2021-05-24,103.678279283036,1.3271618610269,629117
2021-05-14,1130h - 1230h,West Mall (1 Bukit Batok Central Link) ,Simpson TCM Clinic,https://www.todayonline.com/singapore/changi-city-point-sengkang-sports-complex-among-places-visited-covid-19-cases-while,Added/ Updated on 2021-05-23,103.749021976618,1.35018916560505,658713
2021-05-14,1200h - 1300h,Singapore Polytechnic (500 Dover Road) ,Food Court 3,https://www.todayonline.com/singapore/punggol-plaza-mbs-mall-among-places-visited-covid-19-cases-while-infectious,Added/ Updated on 2021-05-25,103.778336591188,1.30891286089663,NIL
2021-05-14,1230h - 1330h,United Square Shopping Mall (101 Thomson Road) ,Jalan Kayu Prata Cafe,https://www.moh.gov.sg/docs/librariesprovider5/default-document-library/annexes9f1bd59862d64d81862ae7ff2f978152.pdf,Refreshed on 2021-05-20,103.84366703034,1.31707176560995,NIL
2021-05-14,1230h - 1600h,Jurong Point (1 Jurong West Central 2),Seoul Garden,https://www.moh.gov.sg/docs/librariesprovider5/default-document-library/annexes9f1bd59862d64d81862ae7ff2f978152.pdf,Refreshed on 2021-05-20,103.706685012654,1.33945200436318,NIL
2021-05-14,1235h - 1410h,JEM (50 Jurong Gateway Road),"Din Tai Fung, UNIQLO",https://www.channelnewsasia.com/news/singapore/covid-19-locations-sim-lim-square-ikea-jurong-library-14872628,Added/ Updated on 2021-05-24,103.743262234833,1.3325523295069,NIL
2021-05-14,1250h - 1350h,Wanyoo Cybercafe (Beauty World) (2 Cheong Chin Nam Road),,https://www.moh.gov.sg/docs/librariesprovider5/default-document-library/annexes9f1bd59862d64d81862ae7ff2f978152.pdf,Refreshed on 2021-05-20,103.77529722877,1.34227932028741,599727
2021-05-14,1255h - 1335h,Masjid Al-Muttaqin (5140 Ang Mo Kio Avenue 6),,https://www.todayonline.com/singapore/changi-city-point-sengkang-sports-complex-among-places-visited-covid-19-cases-while,Added/ Updated on 2021-05-23,103.846029708854,1.37033364985249,569844
2021-05-14,1310h - 1350h,United Square Shopping Mall(101 Thomson Road) ,Food Junction,https://www.todayonline.com/singapore/peninsula-plaza-causeway-point-and-several-supermarkets-among-places-visited-covid-19,Added/ Updated on 2021-05-21,103.84366703034,1.31707176560995,NIL
2021-05-14,1320h - 1400h,The Shoppes at Marina Bay Sands (10 Bayfront Avenue),,https://www.todayonline.com/singapore/punggol-plaza-mbs-mall-among-places-visited-covid-19-cases-while-infectious,Added/ Updated on 2021-05-25,103.858562162091,1.28257452719678,018956
2021-05-14,1340h - 1430h,Marsiling Community Club (100 Admiralty Road),,https://www.moh.gov.sg/docs/librariesprovider5/default-document-library/annexes9f1bd59862d64d81862ae7ff2f978152.pdf,Refreshed on 2021-05-20,103.773615177369,1.44065677881395,739980
2021-05-14,1355h - 1455h,Westgate (3 Gateway Drive) ,Pandora,https://www.todayonline.com/singapore/changi-city-point-sengkang-sports-complex-among-places-visited-covid-19-cases-while,Added/ Updated on 2021-05-23,103.742722109979,1.33429478930696,NIL
2021-05-14,1455h - 1555h,Marsiling Mall (4 Woodlands Street 12) ,Sheng Siong Supermarket,https://www.moh.gov.sg/docs/librariesprovider5/default-document-library/annexes9f1bd59862d64d81862ae7ff2f978152.pdf,Refreshed on 2021-05-20,103.779746860157,1.43351253520759,738623
2021-05-14,1500h - 1600h,Paya Lebar Square (60 Paya Lebar Road) ,Ramen Keisuke Tonkatsu King Niku King,https://www.moh.gov.sg/docs/librariesprovider5/default-document-library/annexes9f1bd59862d64d81862ae7ff2f978152.pdf,Refreshed on 2021-05-20,103.892550598424,1.31867575623015,409051
2021-05-14,1500h - 1915h,Paragon (290 Orchard Road),Starbucks,https://www.moh.gov.sg/docs/librariesprovider5/default-document-library/annexes9f1bd59862d64d81862ae7ff2f978152.pdf,Refreshed on 2021-05-20,103.83526664484,1.30371084737898,238859
2021-05-14,1505h - 2100h,Westgate (3 Gateway Drive) ,Pizza Hut,https://www.todayonline.com/singapore/punggol-plaza-mbs-mall-among-places-visited-covid-19-cases-while-infectious,Added/ Updated on 2021-05-25,103.742722109979,1.33429478930696,NIL
2021-05-14,1600h - 1635h,West Mall (1 Bukit Batok Central Link),EC House All Range Cuts,https://www.channelnewsasia.com/news/singapore/covid-19-locations-sim-lim-square-ikea-jurong-library-14872628,Added/ Updated on 2021-05-24,103.749021976618,1.35018916560505,658713
2021-05-14,1720h - 1750h,Sheng Siong Supermarket (52 Chin Swee Road),,https://www.moh.gov.sg/docs/librariesprovider5/default-document-library/annexes9f1bd59862d64d81862ae7ff2f978152.pdf,Refreshed on 2021-05-20,103.841580109275,1.28708278284997,160052
2021-05-14,1750h - 1915h,DArena Country Club (511 Upper Jurong Road),Smash Arena,https://www.todayonline.com/singapore/changi-city-point-sengkang-sports-complex-among-places-visited-covid-19-cases-while,Added/ Updated on 2021-05-23,103.682388469812,1.32936819642869,638366
2021-05-14,1805h - 1835h,Junction 10 (1 Woodlands Road) ,Sheng Siong Supermarket,https://www.moh.gov.sg/docs/librariesprovider5/default-document-library/annexes9f1bd59862d64d81862ae7ff2f978152.pdf,Refreshed on 2021-05-20,103.759993877793,1.38056276998076,NIL
2021-05-14,1830h - 1905h,Superluck Food Court (440 Bukit Batok West Avenue 8),,https://www.moh.gov.sg/docs/librariesprovider5/default-document-library/annexes9f1bd59862d64d81862ae7ff2f978152.pdf,Refreshed on 2021-05-20,103.739303105372,1.35572308109486,650440
2021-05-14,1835h - 2145h,JEM (50 Jurong Gateway Road) ,Ichiban Boshi,https://www.moh.gov.sg/docs/librariesprovider5/default-document-library/annexes9f1bd59862d64d81862ae7ff2f978152.pdf,Refreshed on 2021-05-20,103.743262234833,1.3325523295069,NIL
2021-05-14,1900h - 0600h,Sheng Siong Supermarket (440 Bukit Batok West Avenue 8),,https://www.moh.gov.sg/docs/librariesprovider5/default-document-library/annexes9f1bd59862d64d81862ae7ff2f978152.pdf,Refreshed on 2021-05-20,103.739303105372,1.35572308109486,650440
2021-05-14,1915h - 2015h,SAFRA Toa Payoh (293 Lorong 6 Toa Payoh),Yakun Kaya Toast,https://www.moh.gov.sg/docs/librariesprovider5/default-document-library/annexes9f1bd59862d64d81862ae7ff2f978152.pdf,Refreshed on 2021-05-20,103.854404351883,1.32980734095166,319387
2021-05-14,1930h - 2030h,S-11 Taman Jurong Food House (101 Yung Sheng Road),,https://www.todayonline.com/singapore/changi-city-point-sengkang-sports-complex-among-places-visited-covid-19-cases-while,Added/ Updated on 2021-05-23,103.722221199754,1.33441342907314,618497
2021-05-14,1955h - 2130h,JEM (50 Jurong Gateway Road),Seorae Korean Charcoal BBQ,https://www.moh.gov.sg/docs/librariesprovider5/default-document-library/annexes9f1bd59862d64d81862ae7ff2f978152.pdf,Refreshed on 2021-05-20,103.743262234833,1.3325523295069,NIL
2021-05-14,2045h - 0030h,Toa Payoh Mall (177 Toa Payoh Central) ,Nagara Thai,https://www.moh.gov.sg/docs/librariesprovider5/default-document-library/annexes9f1bd59862d64d81862ae7ff2f978152.pdf,Refreshed on 2021-05-20,103.848854818382,1.33390034057387,310177
2021-05-14,2115h - 2340h,BBQ Box @ Bukit Timah (22 Cheong Chin Nam Road),,https://www.channelnewsasia.com/news/singapore/covid-19-locations-may-26-mcdonalds-woodlands-poke-theory-novena-14889532,Added/ Updated on 2021-05-27,103.775032268285,1.34364174837769,599746
2021-05-14,2130h - 0730h,Marina Bay Sands Casino (10 Bayfront Avenue),,https://www.moh.gov.sg/docs/librariesprovider5/default-document-library/annexes9f1bd59862d64d81862ae7ff2f978152.pdf,Refreshed on 2021-05-20,103.858562162091,1.28257452719678,018956
2021-05-14,2205h - 0730h,Marina Bay Sands Casino (10 Bayfront Avenue),,https://www.moh.gov.sg/docs/librariesprovider5/default-document-library/annexes9f1bd59862d64d81862ae7ff2f978152.pdf,Refreshed on 2021-05-20,103.858562162091,1.28257452719678,018956
2021-05-14,2220h - 2305h,Sengkang Sports Complex (57 Anchorvale Road),McDonalds,https://www.todayonline.com/singapore/changi-city-point-sengkang-sports-complex-among-places-visited-covid-19-cases-while,Added/ Updated on 2021-05-23,103.885789251445,1.39549659121761,544964
2021-05-14,2250h - 2320h,NTUC FairPrice (345 Jurong East Street 31),,https://www.moh.gov.sg/docs/librariesprovider5/default-document-library/annexes9f1bd59862d64d81862ae7ff2f978152.pdf,Refreshed on 2021-05-20,103.73121914575,1.3455121058675,600345
2021-05-13,0800h - 2200h,Westgate (3 Gateway Drive),,https://www.todayonline.com/singapore/westgate-lucky-plaza-and-mustafa-centre-among-places-visited-covid-19-cases-while,"Added/ Updated on 2021-05-28, Date is till 21 May",103.742722109979,1.33429478930696,NIL
2021-05-13,0820h - 0920h,JEM (50 Jurong Gateway Road),,https://www.moh.gov.sg/docs/librariesprovider5/default-document-library/annexes9f1bd59862d64d81862ae7ff2f978152.pdf,Refreshed on 2021-05-20,103.743262234833,1.3325523295069,NIL
2021-05-13,0825h - 0900h,United Square Shopping Mall (101 Thomson Road),Ya Kun Kaya Toast,https://www.todayonline.com/singapore/peninsula-plaza-causeway-point-and-several-supermarkets-among-places-visited-covid-19,Added/ Updated on 2021-05-21,103.84366703034,1.31707176560995,NIL
2021-05-13,0830h - 0900h,JEM (50 Jurong Gateway Road) ,Toast Box,https://www.moh.gov.sg/docs/librariesprovider5/default-document-library/annexes9f1bd59862d64d81862ae7ff2f978152.pdf,Refreshed on 2021-05-20,103.743262234833,1.3325523295069,NIL
2021-05-13,0845h - 0915h,Bukit Batok Blk 371 Coffeeshop (371 Bukit Batok Street 31),,https://www.moh.gov.sg/docs/librariesprovider5/default-document-library/annexes9f1bd59862d64d81862ae7ff2f978152.pdf,Refreshed on 2021-05-20,103.75069463109,1.35925940866067,650371
2021-05-13,0900h - 0930h,Thomson Plaza (301 Upper Thomson Road) ,Koufu,https://www.moh.gov.sg/docs/librariesprovider5/default-document-library/annexes9f1bd59862d64d81862ae7ff2f978152.pdf,Refreshed on 2021-05-20,103.831053292454,1.35502885653149,NIL
2021-05-13,0910h - 1545h,Burger King (11 Bedok North Street 1),,https://www.channelnewsasia.com/news/singapore/covid-19-locations-visited-may-21-far-east-plaza-14859090,Added/ Updated on 2021-05-22,103.932104880536,1.3269254067053,469662
2021-05-13,1000h - 1030h,Thomson Plaza (301 Upper Thomson Road) ,FairPrice Finest,https://www.moh.gov.sg/docs/librariesprovider5/default-document-library/annexes9f1bd59862d64d81862ae7ff2f978152.pdf,Refreshed on 2021-05-20,103.831053292454,1.35502885653149,NIL
2021-05-13,1000h - 1400h,The Seletar Mall (33 Sengkang West Avenue),,https://www.todayonline.com/singapore/punggol-plaza-mbs-mall-among-places-visited-covid-19-cases-while-infectious,Added/ Updated on 2021-05-25,103.876156956828,1.3913688093851,797653
2021-05-13,1000h - 2030h,Toast & Curry (43 Siloso Beach Walk),,https://www.todayonline.com/singapore/westgate-lucky-plaza-and-mustafa-centre-among-places-visited-covid-19-cases-while,Added/ Updated on 2021-05-28,103.81755421712,1.25200579229141,099010
2021-05-13,1045h - 1120h,Sheng Siong Supermarket (4 Toa Payoh Lorong 7),,https://www.todayonline.com/singapore/changi-city-point-sengkang-sports-complex-among-places-visited-covid-19-cases-while,Added/ Updated on 2021-05-23,103.85554106336,1.33904479783226,310004
2021-05-13,1100h - 1600h,Westgate (3 Gateway Drive) ,Pizza Hut,https://www.todayonline.com/singapore/punggol-plaza-mbs-mall-among-places-visited-covid-19-cases-while-infectious,Added/ Updated on 2021-05-25,103.742722109979,1.33429478930696,NIL
2021-05-13,1115h - 1150h,Selera Restaurant (15 Mackenzie Road),,https://www.todayonline.com/singapore/westgate-lucky-plaza-and-mustafa-centre-among-places-visited-covid-19-cases-while,Added/ Updated on 2021-05-28,103.849798660856,1.30437833970243,228677
2021-05-13,1155h - 1225h,The Shoppes at Marina Bay Sands (10 Bayfront Avenue) ,ZARA,https://www.moh.gov.sg/docs/librariesprovider5/default-document-library/annexes9f1bd59862d64d81862ae7ff2f978152.pdf,Refreshed on 2021-05-20,103.858562162091,1.28257452719678,018956
2021-05-13,1230h - 1330h,Eunos Food Station (2A Eunos Crescent),,https://www.moh.gov.sg/docs/librariesprovider5/default-document-library/annexes9f1bd59862d64d81862ae7ff2f978152.pdf,Refreshed on 2021-05-20,103.903193509829,1.3202011052846,401002
2021-05-13,1230h - 1600h,Marina Bay Sands (10 Bayfront Avenue) ,Lavo Italian Restaurant And Rooftop Bar,https://www.moh.gov.sg/docs/librariesprovider5/default-document-library/annexes9f1bd59862d64d81862ae7ff2f978152.pdf,Refreshed on 2021-05-20,103.858562162091,1.28257452719678,018956
2021-05-13,1305h - 1405h,Woods Square (6 Woodlands Square),Saizeriya,https://www.todayonline.com/singapore/peninsula-plaza-causeway-point-and-several-supermarkets-among-places-visited-covid-19,Added/ Updated on 2021-05-21,103.785845466213,1.43514555835087,737737
2021-05-13,1325h - 1355h,JEM (50 Jurong Gateway Road),,https://www.channelnewsasia.com/news/singapore/covid-19-locations-sim-lim-square-ikea-jurong-library-14872628,Added/ Updated on 2021-05-24,103.743262234833,1.3325523295069,NIL
2021-05-13,1325h - 1400h,ION Orchard (2 Orchard Turn) ,Steinway & Sons,https://www.moh.gov.sg/docs/librariesprovider5/default-document-library/annexes9f1bd59862d64d81862ae7ff2f978152.pdf,Refreshed on 2021-05-20,103.831774296637,1.30419841973372,NIL
2021-05-13,1345h - 1445h,JEM (50 Jurong Gateway Road) ,Cookhouse by Koufu,https://www.moh.gov.sg/docs/librariesprovider5/default-document-library/annexes9f1bd59862d64d81862ae7ff2f978152.pdf,Refreshed on 2021-05-20,103.743262234833,1.3325523295069,NIL
2021-05-13,1400h - 1500h,HDB Hub (480 Lorong 6 Toa Payoh) ,Bowl & Bowl,https://www.todayonline.com/singapore/peninsula-plaza-causeway-point-and-several-supermarkets-among-places-visited-covid-19,Added/ Updated on 2021-05-21,103.848335264381,1.33202548854255,310480
2021-05-13,1420h - 1500h,Sun Plaza (30 Sembawang Drive) ,Dunkin Donuts,https://www.todayonline.com/singapore/punggol-plaza-mbs-mall-among-places-visited-covid-19-cases-while-infectious,Added/ Updated on 2021-05-25,103.819462102812,1.44822653818275,757713
2021-05-13,1520h - 1600h,Westgate (3 Gateway Drive),Harvey Norman,https://www.channelnewsasia.com/news/singapore/covid-19-locations-sim-lim-square-ikea-jurong-library-14872628,Added/ Updated on 2021-05-24,103.742722109979,1.33429478930696,NIL
2021-05-13,1545h - 1845h,Chong Yee Temple (72 Sengkang West Avenue),,https://www.moh.gov.sg/docs/librariesprovider5/default-document-library/annexes9f1bd59862d64d81862ae7ff2f978152.pdf,Refreshed on 2021-05-20,103.872236016616,1.39186013872138,797652
2021-05-13,1600h - 1640h,Peninsula Plaza (111 North Bridge Road),,https://www.todayonline.com/singapore/peninsula-plaza-causeway-point-and-several-supermarkets-among-places-visited-covid-19,Added/ Updated on 2021-05-21,103.85080450702,1.29232248414936,NIL
2021-05-13,1620h - 1715h,U Stars Supermarket (829 Tampines Street 81),,https://www.todayonline.com/singapore/punggol-plaza-mbs-mall-among-places-visited-covid-19-cases-while-infectious,Added/ Updated on 2021-05-25,103.934914286623,1.34922100236977,520829
2021-05-13,1620h - 2000h,JEM (50 Jurong Gateway Road),"IKEA Jurong, H&M, Cotton On Kids, Pizzakaya",https://www.channelnewsasia.com/news/singapore/covid-19-locations-sim-lim-square-ikea-jurong-library-14872628,Added/ Updated on 2021-05-24,103.743262234833,1.3325523295069,NIL
2021-05-13,1700h - 1740h,Millenia Walk (9 Raffles Boulevard) ,Meidi-Ya Supermarket,https://www.moh.gov.sg/docs/librariesprovider5/default-document-library/annexes9f1bd59862d64d81862ae7ff2f978152.pdf,Refreshed on 2021-05-20,103.859900233499,1.29204605302049,039596
2021-05-13,1710h - 1830h,Causeway Point (1 Woodlands Square),,https://www.moh.gov.sg/docs/librariesprovider5/default-document-library/annexes9f1bd59862d64d81862ae7ff2f978152.pdf,Refreshed on 2021-05-20,103.786009973678,1.43608867729912,738099
2021-05-13,1725h - 1825h,Causeway Point (1 Woodlands Square) ,Metro Department Store,https://www.moh.gov.sg/docs/librariesprovider5/default-document-library/annexes9f1bd59862d64d81862ae7ff2f978152.pdf,Refreshed on 2021-05-20,103.786009973678,1.43608867729912,738099
2021-05-13,1815h - 0600h,Sheng Shiong Supermarket (440 Bukit Batok West Avenue 8),,https://www.todayonline.com/singapore/westgate-lucky-plaza-and-mustafa-centre-among-places-visited-covid-19-cases-while,Added/ Updated on 2021-05-28,103.739303105372,1.35572308109486,650440
2021-05-13,1825h - 2030h,Wood Square (6 Woodlands Square) ,Sanook Kitchen,https://www.moh.gov.sg/docs/librariesprovider5/default-document-library/annexes9f1bd59862d64d81862ae7ff2f978152.pdf,Refreshed on 2021-05-20,103.785845466213,1.43514555835087,737737
2021-05-13,1830h - 1930h,G7 Sin Ma Live Bull Frog Claypot Porridge (5 Cheong Chin Nam Road),,https://www.channelnewsasia.com/news/singapore/covid-19-locations-may-26-mcdonalds-woodlands-poke-theory-novena-14889532,Added/ Updated on 2021-05-27,103.775237429914,1.34248911530732,599730
2021-05-13,1830h - 1930h,Suntec City (3 Temasek Boulevard) ,Una Una,https://www.moh.gov.sg/docs/librariesprovider5/default-document-library/annexes9f1bd59862d64d81862ae7ff2f978152.pdf,Refreshed on 2021-05-20,103.857675494346,1.2948790500243,038983
2021-05-13,1850h - 1945h,Our Tampines Hub (1 Tampines Walk) ,Timezone,https://www.todayonline.com/singapore/punggol-plaza-mbs-mall-among-places-visited-covid-19-cases-while-infectious,Added/ Updated on 2021-05-25,103.940148593378,1.35320985987658,528523
2021-05-13,1900h - 2000h,SHU Vegetarian (259 Jalan Kayu),,https://www.moh.gov.sg/docs/librariesprovider5/default-document-library/annexes9f1bd59862d64d81862ae7ff2f978152.pdf,Refreshed on 2021-05-20,103.872887978423,1.39684340556858,799488
2021-05-13,1930h - 2000h,Suntec City (3 Temasek Boulevard) ,Yenly Yours Desserts,https://www.moh.gov.sg/docs/librariesprovider5/default-document-library/annexes9f1bd59862d64d81862ae7ff2f978152.pdf,Refreshed on 2021-05-20,103.857675494346,1.2948790500243,038983
2021-05-13,1940h - 2040h,Bukit Timah Plaza (1 Jalan Anak Bukit),NTUC FairPrice Finest,https://www.channelnewsasia.com/news/singapore/covid-19-locations-may-26-mcdonalds-woodlands-poke-theory-novena-14889532,Added/ Updated on 2021-05-27,103.778560467143,1.33865677622928,588996
2021-05-13,2005h - 2055h,JEM (50 Jurong Gateway Road) ,XW Western Grill,https://www.todayonline.com/singapore/changi-city-point-sengkang-sports-complex-among-places-visited-covid-19-cases-while,Added/ Updated on 2021-05-23,103.743262234833,1.3325523295069,NIL
2021-05-13,2030h - 0600h,Sheng Siong Supermarket (440 Bukit Batok West Avenue 8),,https://www.moh.gov.sg/docs/librariesprovider5/default-document-library/annexes9f1bd59862d64d81862ae7ff2f978152.pdf,Refreshed on 2021-05-20,103.739303105372,1.35572308109486,650440
2021-05-13,2030h - 2200h,Kimly Coffeeshop (444 Pasir Ris Drive 6),,https://www.moh.gov.sg/docs/librariesprovider5/default-document-library/annexes9f1bd59862d64d81862ae7ff2f978152.pdf,Refreshed on 2021-05-20,103.95748962666,1.37000224411598,510444
2021-05-13,2140h - 2220h,NTUC FairPrice (152B Serangoon North Avenue 1),,https://www.moh.gov.sg/docs/librariesprovider5/default-document-library/annexes9f1bd59862d64d81862ae7ff2f978152.pdf,Refreshed on 2021-05-20,103.87303579046,1.36979940374161,552152
2021-05-13,2230h - 0730h,Marina Bay Sands Casino (10 Bayfront Avenue),,https://www.moh.gov.sg/docs/librariesprovider5/default-document-library/annexes9f1bd59862d64d81862ae7ff2f978152.pdf,Refreshed on 2021-05-20,103.858562162091,1.28257452719678,018956
2021-05-12,0710h - 0750h,Pasir Ris Market Produce Shop (441 Pasir Ris Drive 6),,https://www.moh.gov.sg/docs/librariesprovider5/default-document-library/annexes9f1bd59862d64d81862ae7ff2f978152.pdf,Refreshed on 2021-05-20,103.958173949924,1.36922534298881,510441
2021-05-12,1000h - 2030h,Toast & Curry (43 Siloso Beach Walk),,https://www.moh.gov.sg/docs/librariesprovider5/default-document-library/annexes9f1bd59862d64d81862ae7ff2f978152.pdf,Refreshed on 2021-05-20,103.81755421712,1.25200579229141,099010
2021-05-12,1010h - 1045h,Funan (107 North Bridge Road) ,KopiTech,https://www.moh.gov.sg/docs/librariesprovider5/default-document-library/annexes9f1bd59862d64d81862ae7ff2f978152.pdf,Refreshed on 2021-05-20,103.849984790048,1.29124400604241,179105
2021-05-12,1010h - 1050h,Giant (376 Bukit Batok Street 31),,https://www.todayonline.com/singapore/peninsula-plaza-causeway-point-and-several-supermarkets-among-places-visited-covid-19,Added/ Updated on 2021-05-21,103.749579868748,1.35831705249924,650376
2021-05-12,1145h - 1215h,Changi City Point (5 Changi Business Park Central 1),Kopitiam,https://www.moh.gov.sg/docs/librariesprovider5/default-document-library/annexes9f1bd59862d64d81862ae7ff2f978152.pdf,Refreshed on 2021-05-20,103.962946043413,1.33408363820793,NIL
2021-05-12,1220h - 1300h,Tampines Mart (9 Tampines Street 32) ,Giant,https://www.moh.gov.sg/docs/librariesprovider5/default-document-library/annexes9f1bd59862d64d81862ae7ff2f978152.pdf,Refreshed on 2021-05-20,103.960153484359,1.35459392882388,529286
2021-05-12,1245h - 1350h,Junction 8 (9 Bishan Place) ,Food Junction,https://www.moh.gov.sg/docs/librariesprovider5/default-document-library/annexes9f1bd59862d64d81862ae7ff2f978152.pdf,Refreshed on 2021-05-20,103.848490106744,1.3502358416,NIL
2021-05-12,1300h - 1400h,Singapore Polytechnic (500 Dover Road) ,Food Court 2,https://www.todayonline.com/singapore/punggol-plaza-mbs-mall-among-places-visited-covid-19-cases-while-infectious,Added/ Updated on 2021-05-25,103.778336591188,1.30891286089663,NIL
2021-05-12,1300h - 2000h,Westgate (3 Gateway Drive) ,Star Arts,https://www.moh.gov.sg/docs/librariesprovider5/default-document-library/annexes9f1bd59862d64d81862ae7ff2f978152.pdf,Refreshed on 2021-05-20,103.742722109979,1.33429478930696,NIL
2021-05-12,1305h - 1405h,Old Airport Road Food Centre & Shopping Mall (51 Old Airport Road),,https://www.moh.gov.sg/docs/librariesprovider5/default-document-library/annexes9f1bd59862d64d81862ae7ff2f978152.pdf,Refreshed on 2021-05-20,103.885833296453,1.30825157725791,390051
2021-05-12,1310h - 1410h,KK Womens and Childrens Hospital (100 Bukit Timah Road) ,Healthy Kopitiam,https://www.moh.gov.sg/docs/librariesprovider5/default-document-library/annexes9f1bd59862d64d81862ae7ff2f978152.pdf,Refreshed on 2021-05-20,103.846650072852,1.31044853126535,NIL
2021-05-12,1315h - 1410h,The Shoppes at Marina Bay Sands (10 Bayfront Avenue),,https://www.todayonline.com/singapore/punggol-plaza-mbs-mall-among-places-visited-covid-19-cases-while-infectious,Added/ Updated on 2021-05-25,103.858562162091,1.28257452719678,018956
2021-05-12,1340h - 1430h,Hillion Mall (17 Petir Road),Sushi Express,https://www.channelnewsasia.com/news/singapore/covid-19-locations-may-26-mcdonalds-woodlands-poke-theory-novena-14889532,Added/ Updated on 2021-05-27,103.763022901683,1.37849868060834,678278
2021-05-12,1405h - 1505h,Wanyoo Cybercafe (Beauty World) (2 Cheong Chin Nam Road),,https://www.moh.gov.sg/docs/librariesprovider5/default-document-library/annexes9f1bd59862d64d81862ae7ff2f978152.pdf,Refreshed on 2021-05-20,103.77529722877,1.34227932028741,599727
2021-05-12,1420h - 1515h,Market Square @ Downtown East (1 Pasir Ris Close) ,Mr Chicken Rice,https://www.moh.gov.sg/docs/librariesprovider5/default-document-library/annexes9f1bd59862d64d81862ae7ff2f978152.pdf,Refreshed on 2021-05-20,103.955013328302,1.37918445128044,519599
2021-05-12,1500h - 2100h,Westgate (3 Gateway Drive) ,Pizza Hut,https://www.todayonline.com/singapore/punggol-plaza-mbs-mall-among-places-visited-covid-19-cases-while-infectious,Added/ Updated on 2021-05-25,103.742722109979,1.33429478930696,NIL
2021-05-12,1515h - 1710h,Market Square @ Downtown East ,NTUC FairPrice,https://www.moh.gov.sg/docs/librariesprovider5/default-document-library/annexes9f1bd59862d64d81862ae7ff2f978152.pdf,Refreshed on 2021-05-20,103.742722109979,1.33429478930696,NIL
2021-05-12,1520h - 1620h,Fu Lu Shou Complex (149 Rochor Road),,https://www.moh.gov.sg/docs/librariesprovider5/default-document-library/annexes9f1bd59862d64d81862ae7ff2f978152.pdf,Refreshed on 2021-05-20,103.854568540158,1.30148706909734,188425
2021-05-12,1530h - 1720h,Junction 8 (9 Bishan Place) ,Ambush,https://www.moh.gov.sg/docs/librariesprovider5/default-document-library/annexes9f1bd59862d64d81862ae7ff2f978152.pdf,Refreshed on 2021-05-20,103.848490106744,1.3502358416,NIL
2021-05-12,1600h - 1730h,Start Smart Learning Centre Pte Ltd (164 Tampines Street 12),,https://www.moh.gov.sg/docs/librariesprovider5/default-document-library/annexes9f1bd59862d64d81862ae7ff2f978152.pdf,Refreshed on 2021-05-20,103.946000691097,1.34962151426548,521164
2021-05-12,1620h - 1655h,Bedok Interchange Hawker Centre (208B New Upper Changi Road),,https://www.moh.gov.sg/docs/librariesprovider5/default-document-library/annexes9f1bd59862d64d81862ae7ff2f978152.pdf,Refreshed on 2021-05-20,103.930570304559,1.32478236985627,462208
2021-05-12,1645h - 1745h,Bedok Mall (311 New Upper Changi Road) ,Singtel Exclusive Retailer,https://www.moh.gov.sg/docs/librariesprovider5/default-document-library/annexes9f1bd59862d64d81862ae7ff2f978152.pdf,Refreshed on 2021-05-20,103.92940545649,1.32466897396908,467360
2021-05-12,1655h - 1810h,Bugis+ (201 Victoria Street),,https://www.moh.gov.sg/docs/librariesprovider5/default-document-library/annexes9f1bd59862d64d81862ae7ff2f978152.pdf,Refreshed on 2021-05-20,103.854370864874,1.2995076134825,188067
2021-05-12,1700h - 1800h,Kopitiam (10 Jurong East Street 12),,https://www.moh.gov.sg/docs/librariesprovider5/default-document-library/annexes9f1bd59862d64d81862ae7ff2f978152.pdf,Refreshed on 2021-05-20,103.742153884191,1.33329506563597,609690
2021-05-12,1710h - 1740h,Toa Payoh HDB Hub (500 Lorong 6 Toa Payoh),McDonalds,https://www.moh.gov.sg/docs/librariesprovider5/default-document-library/annexes9f1bd59862d64d81862ae7ff2f978152.pdf,Refreshed on 2021-05-20,103.847050346651,1.33296549735939,310500
2021-05-12,1730h - 2130h,Junction 8 (9 Bishan Place) ,What the Fish,https://www.moh.gov.sg/docs/librariesprovider5/default-document-library/annexes9f1bd59862d64d81862ae7ff2f978152.pdf,Refreshed on 2021-05-20,103.848490106744,1.3502358416,NIL
2021-05-12,1740h - 1835h,Paya Lebar Square (60 Paya Lebar Road),Greendot,https://www.todayonline.com/singapore/peninsula-plaza-causeway-point-and-several-supermarkets-among-places-visited-covid-19,Added/ Updated on 2021-05-21,103.892550598424,1.31867575623015,409051
2021-05-12,1740h - 2100h,The Grandstand (200 Turf Club Road) ,Foresta Restaurant,https://www.todayonline.com/singapore/changi-city-point-sengkang-sports-complex-among-places-visited-covid-19-cases-while,Added/ Updated on 2021-05-23,103.79368903828,1.3376344395572,NIL
2021-05-12,1745h - 1815h,Superluck Food Court (440 Bukit Batok West Avenue 8),,https://www.moh.gov.sg/docs/librariesprovider5/default-document-library/annexes9f1bd59862d64d81862ae7ff2f978152.pdf,Refreshed on 2021-05-20,103.739303105372,1.35572308109486,650440
2021-05-12,1815h - 0600h,Sheng Siong Supermarket (440 Bukit Batok West Avenue 8),,https://www.moh.gov.sg/docs/librariesprovider5/default-document-library/annexes9f1bd59862d64d81862ae7ff2f978152.pdf,Refreshed on 2021-05-20,103.739303105372,1.35572308109486,650440
2021-05-12,1820h - 1930h,Keat Hong Community Club (2 Choa Chu Kang Loop) ,SuperBowl Keat Hong,https://www.moh.gov.sg/docs/librariesprovider5/default-document-library/annexes9f1bd59862d64d81862ae7ff2f978152.pdf,Refreshed on 2021-05-20,103.744923812475,1.3840651692895,689687
2021-05-12,1930h - 2005h,Le Quest Shopping Mall (4 Bukit Batok Street 41) ,FairPrice Finest,https://www.moh.gov.sg/docs/librariesprovider5/default-document-library/annexes9f1bd59862d64d81862ae7ff2f978152.pdf,Refreshed on 2021-05-20,103.741127005764,1.35594171176111,657991
2021-05-12,2000h - 2200h,Kimly Coffeeshop (444 Pasir Ris Drive 6),,https://www.moh.gov.sg/docs/librariesprovider5/default-document-library/annexes9f1bd59862d64d81862ae7ff2f978152.pdf,Refreshed on 2021-05-20,103.95748962666,1.37000224411598,510444
2021-05-12,2100h - 2145h,Compass One (1 Sengkang Square) ,Pontian Wanton Noodles,https://www.moh.gov.sg/docs/librariesprovider5/default-document-library/annexes9f1bd59862d64d81862ae7ff2f978152.pdf,Refreshed on 2021-05-20,103.894980025383,1.39209415594051,545078
2021-05-12,2200h - 2230h,NTUC FairPrice (345 Jurong East Street 31),,https://www.moh.gov.sg/docs/librariesprovider5/default-document-library/annexes9f1bd59862d64d81862ae7ff2f978152.pdf,Refreshed on 2021-05-20,103.73121914575,1.3455121058675,600345
2021-05-12,2225h - 2300h,51@AMK (51 Ang Mo Kio Avenue 3),McDonald's,https://www.channelnewsasia.com/news/singapore/covid-19-locations-visited-may-21-far-east-plaza-14859090,Added/ Updated on 2021-05-22,103.847153924066,1.36931517954752,569922
2021-05-11,0540h - 0625h,Rivervale Plaza (118 Rivervale Drive),,https://www.moh.gov.sg/docs/librariesprovider5/default-document-library/annexes9f1bd59862d64d81862ae7ff2f978152.pdf,Refreshed on 2021-05-20,103.901849634797,1.385371516087,540118
2021-05-11,0705h - 0745h,Pasir Ris Market Produce Shop (441 Pasir Ris Drive 6),,https://www.moh.gov.sg/docs/librariesprovider5/default-document-library/annexes9f1bd59862d64d81862ae7ff2f978152.pdf,Refreshed on 2021-05-20,103.958173949924,1.36922534298881,510441
2021-05-11,0915h - 0945h,TripleOne Somerset (111 Somerset Road),So Good Bakery,https://www.moh.gov.sg/docs/librariesprovider5/default-document-library/annexes9f1bd59862d64d81862ae7ff2f978152.pdf,Refreshed on 2021-05-20,103.837362540861,1.30019272342804,238164
2021-05-11,0930h - 1005h,Tampines Mart (9 Tampines Street 32) ,Giant,https://www.todayonline.com/singapore/changi-city-point-sengkang-sports-complex-among-places-visited-covid-19-cases-while,Added/ Updated on 2021-05-23,103.960153484359,1.35459392882388,529286
2021-05-11,0930h - 1030h,West Gate (3 Gateway Drive) ,Toast Box,https://www.moh.gov.sg/docs/librariesprovider5/default-document-library/annexes9f1bd59862d64d81862ae7ff2f978152.pdf,Refreshed on 2021-05-20,103.742722109979,1.33429478930696,NIL
2021-05-11,0940h - 1025h,Rivervale Plaza (118 Rivervale Drive),,https://www.moh.gov.sg/docs/librariesprovider5/default-document-library/annexes9f1bd59862d64d81862ae7ff2f978152.pdf,Refreshed on 2021-05-20,103.901849634797,1.385371516087,540118
2021-05-11,0950h - 1055h,Bukit Panjang Plaza (1 Jelebu Road) ,FairPrice Finest,https://www.moh.gov.sg/docs/librariesprovider5/default-document-library/annexes9f1bd59862d64d81862ae7ff2f978152.pdf,Refreshed on 2021-05-20,103.763993944333,1.38054245606299,NIL
2021-05-11,1015h - 1400h,Ngee Ann City (391 Orchard Rd) ,New York Skin Solutions,https://www.moh.gov.sg/docs/librariesprovider5/default-document-library/annexes9f1bd59862d64d81862ae7ff2f978152.pdf,Refreshed on 2021-05-20,103.834980235031,1.30236932766648,238872
2021-05-11,1025h - 1055h,Rivervale Plaza (118 Rivervale Drive),,https://www.moh.gov.sg/docs/librariesprovider5/default-document-library/annexes9f1bd59862d64d81862ae7ff2f978152.pdf,Refreshed on 2021-05-20,103.901849634797,1.385371516087,540118
2021-05-11,1030h - 1100h,Kopitiam (437 Fernvale Road),,https://www.moh.gov.sg/docs/librariesprovider5/default-document-library/annexes9f1bd59862d64d81862ae7ff2f978152.pdf,Refreshed on 2021-05-20,103.876330394996,1.39255040573906,790437
2021-05-11,1225h - 1345h,Westgate (3 Gateway Drive) ,Pizza Hut,https://www.todayonline.com/singapore/punggol-plaza-mbs-mall-among-places-visited-covid-19-cases-while-infectious,Added/ Updated on 2021-05-25,103.742722109979,1.33429478930696,NIL
2021-05-11,1230h - 1305h,Marina Square (6 Raffles Boulevard) ,McDonalds,https://www.todayonline.com/singapore/punggol-plaza-mbs-mall-among-places-visited-covid-19-cases-while-infectious,Added/ Updated on 2021-05-25,103.857007335679,1.29145526802575,NIL
2021-05-11,1240h - 1340h,Changi City Point (5 Changi Business Park Central 1),,https://www.moh.gov.sg/docs/librariesprovider5/default-document-library/annexes9f1bd59862d64d81862ae7ff2f978152.pdf,Refreshed on 2021-05-20,103.962946043413,1.33408363820793,NIL
2021-05-11,1300h - 1330h,Prime Supermarket (823 Tampines Street 81),,https://www.moh.gov.sg/docs/librariesprovider5/default-document-library/annexes9f1bd59862d64d81862ae7ff2f978152.pdf,Refreshed on 2021-05-20,103.934010232785,1.34873284518968,520823
2021-05-11,1300h - 1330h,Changi City Point (5 Changi Business Park Central 1),McDonalds,https://www.moh.gov.sg/docs/librariesprovider5/default-document-library/annexes9f1bd59862d64d81862ae7ff2f978152.pdf,Refreshed on 2021-05-20,103.962946043413,1.33408363820793,NIL
2021-05-11,1300h - 1345h,The Seletar Mall (33 Sengkang West Avenue) ,FairPrice Finest,https://www.todayonline.com/singapore/peninsula-plaza-causeway-point-and-several-supermarkets-among-places-visited-covid-19,Added/ Updated on 2021-05-21,103.876156956828,1.3913688093851,797653
2021-05-11,1300h - 1400h,Singapore Polytechnic (500 Dover Road) ,Food Court 2,https://www.todayonline.com/singapore/punggol-plaza-mbs-mall-among-places-visited-covid-19-cases-while-infectious,Added/ Updated on 2021-05-25,103.778336591188,1.30891286089663,NIL
2021-05-11,1320h - 1410h,The Shoppes at Marina Bay Sands (10 Bayfront Avenue),,https://www.todayonline.com/singapore/punggol-plaza-mbs-mall-among-places-visited-covid-19-cases-while-infectious,Added/ Updated on 2021-05-25,103.858562162091,1.28257452719678,018956
2021-05-11,1330h - 1635h,"City Square Mall (180 Kitchener Road) 
",EAT.,https://www.moh.gov.sg/docs/librariesprovider5/default-document-library/annexes9f1bd59862d64d81862ae7ff2f978152.pdf,Refreshed on 2021-05-20,103.856780762986,1.31147744952233,208539
2021-05-11,1345h - 1700h,Plaza Singapura (68 Orchard Road) ,"Hot Tomato Bistro, Cold Storage, DAISO",https://www.moh.gov.sg/docs/librariesprovider5/default-document-library/annexes9f1bd59862d64d81862ae7ff2f978152.pdf,Refreshed on 2021-05-20,103.845067272666,1.30082071769235,238839
2021-05-11,1420h - 1500h,White Sands (1 Pasir Ris Central Street 3) ,Ya Kun Family Caf,https://www.moh.gov.sg/docs/librariesprovider5/default-document-library/annexes9f1bd59862d64d81862ae7ff2f978152.pdf,Refreshed on 2021-05-20,103.949749226457,1.37239898072242,518457
2021-05-11,1500h - 2100h,Westgate (3 Gateway Drive) ,Pizza Hut,https://www.todayonline.com/singapore/punggol-plaza-mbs-mall-among-places-visited-covid-19-cases-while-infectious,Added/ Updated on 2021-05-25,103.742722109979,1.33429478930696,NIL
2021-05-11,1515h - 1615h,Sheng Siong Supermarket (19 Serangoon North Avenue 5),,https://www.moh.gov.sg/docs/librariesprovider5/default-document-library/annexes9f1bd59862d64d81862ae7ff2f978152.pdf,Refreshed on 2021-05-20,103.872012103115,1.37565367290165,554913
2021-05-11,1600h - 1650h,Hillion Mall (17 Petir Road),,https://www.moh.gov.sg/docs/librariesprovider5/default-document-library/annexes9f1bd59862d64d81862ae7ff2f978152.pdf,Refreshed on 2021-05-20,103.763022901683,1.37849868060834,678278
2021-05-11,1605h - 1745h,Hillion Mall (17 Petir Road) ,Kopitiam,https://www.moh.gov.sg/docs/librariesprovider5/default-document-library/annexes9f1bd59862d64d81862ae7ff2f978152.pdf,Refreshed on 2021-05-20,103.763022901683,1.37849868060834,678278
2021-05-11,1620h - 1755h,Takashimaya (391A Orchard Road),,https://www.moh.gov.sg/docs/librariesprovider5/default-document-library/annexes9f1bd59862d64d81862ae7ff2f978152.pdf,Refreshed on 2021-05-20,103.834872603881,1.30240769278157,NIL
2021-05-11,1630h - 1705h,Peninsula Plaza (111 North Bridge Road) ,Cathay Photo,https://www.moh.gov.sg/docs/librariesprovider5/default-document-library/annexes9f1bd59862d64d81862ae7ff2f978152.pdf,Refreshed on 2021-05-20,103.85080450702,1.29232248414936,NIL
2021-05-11,1650h - 1730h,Hillion Mall (17 Petir Road),Kopitiam,https://www.moh.gov.sg/docs/librariesprovider5/default-document-library/annexes9f1bd59862d64d81862ae7ff2f978152.pdf,Refreshed on 2021-05-20,103.763022901683,1.37849868060834,678278
2021-05-11,1730h - 2030h,Yang Ming & Hoki Coffee Shop (150 Bishan Street 11),,https://www.moh.gov.sg/docs/librariesprovider5/default-document-library/annexes9f1bd59862d64d81862ae7ff2f978152.pdf,Refreshed on 2021-05-20,103.855213610381,1.34452706951364,570150
2021-05-11,1740h - 1810h,SKP (683 Hougang Avenue 8),,https://www.moh.gov.sg/docs/librariesprovider5/default-document-library/annexes9f1bd59862d64d81862ae7ff2f978152.pdf,Refreshed on 2021-05-20,103.88636553205,1.37332122552779,530683
2021-05-11,1755h - 1850h,JEM (50 Jurong Gateway Road) ,Fairprice Xtra,https://www.moh.gov.sg/docs/librariesprovider5/default-document-library/annexes9f1bd59862d64d81862ae7ff2f978152.pdf,Refreshed on 2021-05-20,103.743262234833,1.3325523295069,NIL
2021-05-11,1825h - 1855h,Rivervale Plaza (118 Rivervale Drive),,https://www.moh.gov.sg/docs/librariesprovider5/default-document-library/annexes9f1bd59862d64d81862ae7ff2f978152.pdf,Refreshed on 2021-05-20,103.901849634797,1.385371516087,540118
2021-05-11,1830h - 1915h,Bedok Point (799 New Upper Changi Road) ,Saizeriya,https://www.moh.gov.sg/docs/librariesprovider5/default-document-library/annexes9f1bd59862d64d81862ae7ff2f978152.pdf,Refreshed on 2021-05-20,103.932384005117,1.32480102552267,467351
2021-05-11,1840h - 1940h,JEM (50 Jurong Gateway Road) ,Tipsy Bunny,https://www.moh.gov.sg/docs/librariesprovider5/default-document-library/annexes9f1bd59862d64d81862ae7ff2f978152.pdf,Refreshed on 2021-05-20,103.743262234833,1.3325523295069,NIL
2021-05-11,1900h - 2000h,Boon Lay Shopping Centre (221 Boon Lay Place),,https://www.moh.gov.sg/docs/librariesprovider5/default-document-library/annexes9f1bd59862d64d81862ae7ff2f978152.pdf,Refreshed on 2021-05-20,103.712472819666,1.34637376407877,640221
2021-05-11,1915h - 2000h,Don Lechn (511 Guillemard Road),,https://www.moh.gov.sg/docs/librariesprovider5/default-document-library/annexes9f1bd59862d64d81862ae7ff2f978152.pdf,Refreshed on 2021-05-20,103.891500511283,1.31419129803566,399849
2021-05-11,1930h - 2030h,Food Paradise (279 Sengkang East Avenue),,https://www.moh.gov.sg/docs/librariesprovider5/default-document-library/annexes9f1bd59862d64d81862ae7ff2f978152.pdf,Refreshed on 2021-05-20,103.893038290302,1.38621835441264,540279
2021-05-11,2100h - 2130h,Junction 8 (9 Bishan Place) ,What the Fish,https://www.moh.gov.sg/docs/librariesprovider5/default-document-library/annexes9f1bd59862d64d81862ae7ff2f978152.pdf,Refreshed on 2021-05-20,103.848490106744,1.3502358416,NIL
2021-05-10,0825h - 0855h,Changi Airport Terminal 3 (65 Airport Boulevard),McDonalds,https://www.moh.gov.sg/docs/librariesprovider5/default-document-library/annexes9f1bd59862d64d81862ae7ff2f978152.pdf,Refreshed on 2021-05-20,103.986978920249,1.35668185930095,NIL
2021-05-10,0830h - 2220h,White Sands (1 Pasir Ris Central Street 3),Unity Pharmacy,https://www.moh.gov.sg/docs/librariesprovider5/default-document-library/annexes9f1bd59862d64d81862ae7ff2f978152.pdf,Refreshed on 2021-05-20,103.949749226457,1.37239898072242,518457
2021-05-10,0845h - 0930h,Sengkang Community Club (2 Sengkang Square),,https://www.moh.gov.sg/docs/librariesprovider5/default-document-library/annexes9f1bd59862d64d81862ae7ff2f978152.pdf,Refreshed on 2021-05-20,103.894198543672,1.39265728982387,NIL
2021-05-10,0900h - 1100h,Rivervale Plaza (118 Rivervale Drive),,https://www.moh.gov.sg/docs/librariesprovider5/default-document-library/annexes9f1bd59862d64d81862ae7ff2f978152.pdf,Refreshed on 2021-05-20,103.901849634797,1.385371516087,540118
2021-05-10,1015h - 2130h,Ngee Ann City (391 Orchard Road) ,New York Skin Solutions,https://www.moh.gov.sg/docs/librariesprovider5/default-document-library/annexes9f1bd59862d64d81862ae7ff2f978152.pdf,Refreshed on 2021-05-20,103.834980235031,1.30236932766648,238872
2021-05-10,1025h - 2230h,White Sands (1 Pasir Ris Drive 3),WOK HEY,https://www.moh.gov.sg/docs/librariesprovider5/default-document-library/annexes9f1bd59862d64d81862ae7ff2f978152.pdf,Refreshed on 2021-05-20,103.959204695763,1.36858695162233,519457
2021-05-10,1050h - 1230h,Immigration Checkpoint Authority (10 Kallang Road),,https://www.moh.gov.sg/docs/librariesprovider5/default-document-library/annexes9f1bd59862d64d81862ae7ff2f978152.pdf,Refreshed on 2021-05-20,103.862593864779,1.30659563968245,208718
2021-05-10,1100h - 1250h,Compass One (1 Sengkang Square),,https://www.moh.gov.sg/docs/librariesprovider5/default-document-library/annexes9f1bd59862d64d81862ae7ff2f978152.pdf,Refreshed on 2021-05-20,103.894980025383,1.39209415594051,545078
